$GPGGA,171021.0,4232.030549,N,08306.789020,W,1,09,0.7,189.2,M,-34.0,M,,*69

$GNGNS,171021.0,4232.030549,N,08306.789020,W,AA,16,0.7,189.2,-34.0,,*53

$GLGSV,3,1,09,78,02,035,16,70,61,326,23,73,14,217,24,80,66,223,30*6F

$GLGSV,3,2,09,79,47,032,19,69,56,135,20,87,02,352,14,71,10,322,28*62

$GLGSV,3,3,09,68,05,139,18*55

$GPGGA,171021.0,4232.030549,N,08306.789020,W,1,09,0.7,189.2,M,-34.0,M,,*69

$GNGNS,171021.0,4232.030549,N,08306.789020,W,AA,16,0.7,189.2,-34.0,,*53

$GPVTG,357.7,T,357.7,M,14.3,N,26.5,K,A*24

$GPRMC,171021.0,A,4232.030549,N,08306.789020,W,14.3,357.7,290315,0.0,E,A*2A

$GPGSA,A,2,01,03,04,12,14,22,25,31,32,,,,0.9,0.7,0.7*3E

$GNGSA,A,2,01,03,04,12,14,22,25,31,32,,,,0.9,0.7,0.7*20

$GNGSA,A,2,68,69,70,71,73,79,80,,,,,,0.9,0.7,0.7*26

$GPVTG,357.7,T,357.7,M,14.3,N,26.5,K,A*24

$GPRMC,171021.0,A,4232.030549,N,08306.789020,W,14.3,357.7,290315,0.0,E,A*2A

$GPGSA,A,2,01,03,04,12,14,22,25,31,32,,,,0.9,0.7,0.7*3E

$GNGSA,A,2,01,03,04,12,14,22,25,31,32,,,,0.9,0.7,0.7*20

$GNGSA,A,2,68,69,70,71,73,79,80,,,,,,0.9,0.7,0.7*26

$GPGSV,3,1,12,01,18,281,24,03,17,316,28,04,16,250,27,08,,,32*4E

$GPGSV,3,1,12,01,18,281,24,03,17,316,28,04,16,250,27,08,,,32*4E

$GPGSV,3,2,12,11,02,262,17,12,13,036,20,14,57,073,17,22,29,161,25*70

$GPGSV,3,2,12,11,02,262,17,12,13,036,20,14,57,073,17,22,29,161,25*70

$GPGSV,3,3,12,25,40,067,21,31,74,253,27,32,59,288,21,18,,,*4E

$GPGSV,3,3,12,25,40,067,21,31,74,253,27,32,59,288,21,18,,,*4E

$GLGSV,3,1,09,78,02,035,16,70,61,326,23,73,14,217,20,80,66,223,29*63

$GLGSV,3,2,09,79,47,032,19,69,56,135,18,87,02,352,14,71,10,322,29*68

$GLGSV,3,3,09,68,05,139,18*55

$GPGGA,171022.0,4232.034290,N,08306.790006,W,1,09,0.7,191.6,M,-34.0,M,,*6C

$GNGNS,171022.0,4232.034290,N,08306.790006,W,AA,16,0.7,191.6,-34.0,,*56

$GPVTG,354.7,T,354.7,M,14.6,N,27.0,K,A*25

$GPRMC,171022.0,A,4232.034290,N,08306.790006,W,14.6,354.7,290315,0.0,E,A*24

$GPGSA,A,2,01,03,04,12,14,22,25,31,32,,,,0.9,0.7,0.7*3E

$GNGSA,A,2,01,03,04,12,14,22,25,31,32,,,,0.9,0.7,0.7*20

$GNGSA,A,2,68,69,70,71,73,79,80,,,,,,0.9,0.7,0.7*26

$GLGSV,3,1,09,78,02,035,16,70,61,326,23,73,14,217,20,80,66,223,29*63

$GLGSV,3,2,09,79,47,032,19,69,56,135,18,87,02,352,14,71,10,322,29*68

$GLGSV,3,3,09,68,05,139,18*55

$GPGGA,171022.0,4232.034290,N,08306.790006,W,1,09,0.7,191.6,M,-34.0,M,,*6C

$GNGNS,171022.0,4232.034290,N,08306.790006,W,AA,16,0.7,191.6,-34.0,,*56

$GPVTG,354.7,T,354.7,M,14.6,N,27.0,K,A*25

$GPRMC,171022.0,A,4232.034290,N,08306.790006,W,14.6,354.7,290315,0.0,E,A*24

$GPGSA,A,2,01,03,04,12,14,22,25,31,32,,,,0.9,0.7,0.7*3E

$GNGSA,A,2,01,03,04,12,14,22,25,31,32,,,,0.9,0.7,0.7*20

$GNGSA,A,2,68,69,70,71,73,79,80,,,,,,0.9,0.7,0.7*26

$GPGSV,3,1,12,01,18,281,25,03,17,316,27,04,16,250,28,08,,,33*4E

$GPGSV,3,2,12,11,02,262,23,12,13,036,25,14,57,073,18,22,29,161,25*7D

$GPGSV,3,3,12,25,40,067,21,31,74,253,24,32,59,288,16,18,,,*49

$GLGSV,3,1,09,78,02,035,16,70,61,326,25,73,14,217,21,80,66,223,29*64

$GLGSV,3,2,09,79,47,032,15,69,56,135,19,87,02,352,14,71,10,322,28*64

$GLGSV,3,3,09,68,05,139,18*55

$GPGGA,171023.0,4232.038394,N,08306.791748,W,1,09,0.7,193.3,M,-34.0,M,,*6F

$GNGNS,171023.0,4232.038394,N,08306.791748,W,AA,16,0.7,193.3,-34.0,,*55

$GPVTG,349.1,T,349.1,M,14.6,N,27.0,K,A*25

$GPRMC,171023.0,A,4232.038394,N,08306.791748,W,14.6,349.1,290315,0.0,E,A*2A

$GPGSA,A,2,01,03,04,12,14,22,25,31,32,,,,0.9,0.7,0.7*3E

$GNGSA,A,2,01,03,04,12,14,22,25,31,32,,,,0.9,0.7,0.7*20

$GNGSA,A,2,68,69,70,71,73,79,80,,,,,,0.9,0.7,0.7*26

$GPGSV,3,1,12,01,18,281,25,03,17,316,27,04,16,250,28,08,,,33*4E

$GPGSV,3,2,12,11,02,262,23,12,13,036,25,14,57,073,18,22,29,161,25*7D

$GPGSV,3,3,12,25,40,067,21,31,74,253,24,32,59,288,16,18,,,*49

$GLGSV,3,1,09,78,02,035,16,70,61,326,25,73,14,217,21,80,66,223,29*64

$GLGSV,3,2,09,79,47,032,15,69,56,135,19,87,02,352,14,71,10,322,28*64

$GLGSV,3,3,09,68,05,139,18*55

$GPGGA,171023.0,4232.038394,N,08306.791748,W,1,09,0.7,193.3,M,-34.0,M,,*6F

$GNGNS,171023.0,4232.038394,N,08306.791748,W,AA,16,0.7,193.3,-34.0,,*55

$GPVTG,349.1,T,349.1,M,14.6,N,27.0,K,A*25

$GPRMC,171023.0,A,4232.038394,N,08306.791748,W,14.6,349.1,290315,0.0,E,A*2A

$GPGSA,A,2,01,03,04,12,14,22,25,31,32,,,,0.9,0.7,0.7*3E

$GNGSA,A,2,01,03,04,12,14,22,25,31,32,,,,0.9,0.7,0.7*20

$GNGSA,A,2,68,69,70,71,73,79,80,,,,,,0.9,0.7,0.7*26

$GPGSV,3,1,12,01,18,281,20,03,17,316,27,04,16,250,26,08,,,32*44

$GPGSV,3,2,12,11,02,262,22,12,13,036,17,14,57,073,17,22,29,161,23*74

$GPGSV,3,3,12,25,40,067,17,31,74,253,23,32,59,288,17,18,,,*4A

$GPGSV,3,1,12,01,18,281,20,03,17,316,27,04,16,250,26,08,,,32*44

$GPGSV,3,2,12,11,02,262,22,12,13,036,17,14,57,073,17,22,29,161,23*74

$GPGSV,3,3,12,25,40,067,17,31,74,253,23,32,59,288,17,18,,,*4A

$GLGSV,3,1,09,78,02,035,16,70,61,326,24,73,14,217,25,80,66,223,30*69

$GLGSV,3,2,09,79,47,032,18,69,56,135,19,87,02,352,14,71,10,322,27*66

$GLGSV,3,3,09,68,05,139,17*5A

$GPGGA,171024.0,4232.042400,N,08306.793564,W,1,09,0.7,192.4,M,-34.0,M,,*67

$GNGNS,171024.0,4232.042400,N,08306.793564,W,AA,16,0.7,192.4,-34.0,,*5D

$GPVTG,341.1,T,341.1,M,14.0,N,26.0,K,A*22

$GPRMC,171024.0,A,4232.042400,N,08306.793564,W,14.0,341.1,290315,0.0,E,A*2A

$GPGSA,A,2,01,03,04,12,14,22,25,31,32,,,,0.9,0.7,0.7*3E

$GNGSA,A,2,01,03,04,12,14,22,25,31,32,,,,0.9,0.7,0.7*20

$GNGSA,A,2,68,69,70,71,73,79,80,,,,,,0.9,0.7,0.7*26

$GLGSV,3,1,09,78,02,035,16,70,61,326,24,73,14,217,25,80,66,223,30*69

$GLGSV,3,2,09,79,47,032,18,69,56,135,19,87,02,352,14,71,10,322,27*66

$GLGSV,3,3,09,68,05,139,17*5A

$GPGGA,171024.0,4232.042400,N,08306.793564,W,1,09,0.7,192.4,M,-34.0,M,,*67

$GNGNS,171024.0,4232.042400,N,08306.793564,W,AA,16,0.7,192.4,-34.0,,*5D

$GPVTG,341.1,T,341.1,M,14.0,N,26.0,K,A*22

$GPRMC,171024.0,A,4232.042400,N,08306.793564,W,14.0,341.1,290315,0.0,E,A*2A

$GPGSA,A,2,01,03,04,12,14,22,25,31,32,,,,0.9,0.7,0.7*3E

$GNGSA,A,2,01,03,04,12,14,22,25,31,32,,,,0.9,0.7,0.7*20

$GNGSA,A,2,68,69,70,71,73,79,80,,,,,,0.9,0.7,0.7*26

$GPGSV,3,1,12,01,18,281,26,03,17,316,28,04,16,250,29,08,,,29*48

$GPGSV,3,2,12,11,02,262,19,12,13,036,18,14,57,073,17,22,29,161,22*72

$GPGSV,3,1,12,01,18,281,26,03,17,316,28,04,16,250,29,08,,,29*48

$GPGSV,3,2,12,11,02,262,19,12,13,036,18,14,57,073,17,22,29,161,22*72

$GPGSV,3,3,12,25,40,067,25,31,74,253,23,32,59,288,24,18,,,*4B

$GPGSV,3,3,12,25,40,067,25,31,74,253,23,32,59,288,24,18,,,*4B

$GLGSV,3,1,09,78,02,035,16,70,61,326,22,73,14,217,26,80,66,223,30*6C

$GLGSV,3,2,09,79,47,032,19,69,56,135,19,87,02,352,14,71,10,322,24*64

$GLGSV,3,3,09,68,05,139,17*5A

$GPGGA,171025.0,4232.046187,N,08306.796842,W,1,09,0.7,193.7,M,-34.0,M,,*66

$GNGNS,171025.0,4232.046187,N,08306.796842,W,AA,16,0.7,193.7,-34.0,,*5C

$GPVTG,329.9,T,329.9,M,14.2,N,26.3,K,A*23

$GPRMC,171025.0,A,4232.046187,N,08306.796842,W,14.2,329.9,290315,0.0,E,A*2D

$GPGSA,A,2,01,03,04,12,14,22,25,31,32,,,,0.9,0.7,0.7*3E

$GLGSV,3,1,09,78,02,035,16,70,61,326,22,73,14,217,26,80,66,223,30*6C

$GLGSV,3,2,09,79,47,032,19,69,56,135,19,87,02,352,14,71,10,322,24*64

$GLGSV,3,3,09,68,05,139,17*5A

$GPGGA,171025.0,4232.046187,N,08306.796842,W,1,09,0.7,193.7,M,-34.0,M,,*66

$GNGNS,171025.0,4232.046187,N,08306.796842,W,AA,16,0.7,193.7,-34.0,,*5C

$GPVTG,329.9,T,329.9,M,14.2,N,26.3,K,A*23

$GPRMC,171025.0,A,4232.046187,N,08306.796842,W,14.2,329.9,290315,0.0,E,A*2D

$GPGSA,A,2,01,03,04,12,14,22,25,31,32,,,,0.9,0.7,0.7*3E

$GNGSA,A,2,01,03,04,12,14,22,25,31,32,,,,0.9,0.7,0.7*20

$GNGSA,A,2,68,69,70,71,73,79,80,,,,,,0.9,0.7,0.7*26

$GNGSA,A,2,01,03,04,12,14,22,25,31,32,,,,0.9,0.7,0.7*20

$GNGSA,A,2,68,69,70,71,73,79,80,,,,,,0.9,0.7,0.7*26

$GPGSV,3,1,12,01,18,281,28,03,17,316,26,04,16,250,22,08,,,24*4E

$GPGSV,3,2,12,11,02,262,24,12,13,036,25,14,57,073,18,22,29,161,20*7F

$GPGSV,3,3,12,25,40,067,21,31,74,253,22,32,59,288,25,18,,,*4F

$GPGSV,3,1,12,01,18,281,28,03,17,316,26,04,16,250,22,08,,,24*4E

$GPGSV,3,2,12,11,02,262,24,12,13,036,25,14,57,073,18,22,29,161,20*7F

$GPGSV,3,3,12,25,40,067,21,31,74,253,22,32,59,288,25,18,,,*4F

$GLGSV,3,1,09,78,02,035,16,70,61,326,26,73,14,217,28,80,66,223,27*60

$GLGSV,3,2,09,79,47,032,22,69,56,135,19,87,02,352,14,71,10,322,17*6C

$GLGSV,3,3,09,68,05,139,19*54

$GPGGA,171026.0,4232.049124,N,08306.801321,W,1,09,0.7,194.3,M,-34.0,M,,*6F

$GNGNS,171026.0,4232.049124,N,08306.801321,W,AA,16,0.7,194.3,-34.0,,*55

$GPVTG,312.5,T,312.5,M,13.8,N,25.5,K,A*2B

$GPRMC,171026.0,A,4232.049124,N,08306.801321,W,13.8,312.5,290315,0.0,E,A*2E

$GPGSA,A,2,01,03,04,12,14,22,25,31,32,,,,0.9,0.7,0.7*3E

$GLGSV,3,1,09,78,02,035,16,70,61,326,26,73,14,217,28,80,66,223,27*60

$GLGSV,3,2,09,79,47,032,22,69,56,135,19,87,02,352,14,71,10,322,17*6C

$GLGSV,3,3,09,68,05,139,19*54

$GPGGA,171026.0,4232.049124,N,08306.801321,W,1,09,0.7,194.3,M,-34.0,M,,*6F

$GNGNS,171026.0,4232.049124,N,08306.801321,W,AA,16,0.7,194.3,-34.0,,*55

$GPVTG,312.5,T,312.5,M,13.8,N,25.5,K,A*2B

$GPRMC,171026.0,A,4232.049124,N,08306.801321,W,13.8,312.5,290315,0.0,E,A*2E

$GPGSA,A,2,01,03,04,12,14,22,25,31,32,,,,0.9,0.7,0.7*3E

$GNGSA,A,2,01,03,04,12,14,22,25,31,32,,,,0.9,0.7,0.7*20

$GNGSA,A,2,68,69,70,71,73,79,80,,,,,,0.9,0.7,0.7*26

$GNGSA,A,2,01,03,04,12,14,22,25,31,32,,,,0.9,0.7,0.7*20

$GNGSA,A,2,68,69,70,71,73,79,80,,,,,,0.9,0.7,0.7*26

$GPGSV,3,1,12,01,18,281,27,03,17,316,19,04,16,250,27,08,,,24*48

$GPGSV,3,2,12,11,02,262,26,12,13,036,22,14,57,073,21,22,29,161,31*70

$GPGSV,3,3,12,25,40,067,22,31,74,254,25,32,59,288,26,18,,,*4F

$GPGSV,3,1,12,01,18,281,27,03,17,316,19,04,16,250,27,08,,,24*48

$GPGSV,3,2,12,11,02,262,26,12,13,036,22,14,57,073,21,22,29,161,31*70

$GPGSV,3,3,12,25,40,067,22,31,74,254,25,32,59,288,26,18,,,*4F

$GLGSV,3,1,09,78,02,035,16,70,61,326,27,73,14,217,27,80,66,223,23*6A

$GLGSV,3,2,09,79,47,032,20,69,56,135,20,87,02,352,14,71,10,322,23*63

$GLGSV,3,3,09,68,05,139,21*5F

$GPGGA,171027.0,4232.051806,N,08306.806332,W,1,09,0.7,194.9,M,-34.0,M,,*61

$GNGNS,171027.0,4232.051806,N,08306.806332,W,AA,16,0.7,194.9,-34.0,,*5B

$GPVTG,288.5,T,288.5,M,13.5,N,25.1,K,A*22

$GPRMC,171027.0,A,4232.051806,N,08306.806332,W,13.5,288.5,290315,0.0,E,A*25

$GPGSA,A,2,01,03,04,12,14,22,25,31,32,,,,0.9,0.7,0.7*3E

$GLGSV,3,1,09,78,02,035,16,70,61,326,27,73,14,217,27,80,66,223,23*6A

$GLGSV,3,2,09,79,47,032,20,69,56,135,20,87,02,352,14,71,10,322,23*63

$GLGSV,3,3,09,68,05,139,21*5F

$GPGGA,171027.0,4232.051806,N,08306.806332,W,1,09,0.7,194.9,M,-34.0,M,,*61

$GNGNS,171027.0,4232.051806,N,08306.806332,W,AA,16,0.7,194.9,-34.0,,*5B

$GPVTG,288.5,T,288.5,M,13.5,N,25.1,K,A*22

$GPRMC,171027.0,A,4232.051806,N,08306.806332,W,13.5,288.5,290315,0.0,E,A*25

$GPGSA,A,2,01,03,04,12,14,22,25,31,32,,,,0.9,0.7,0.7*3E

$GNGSA,A,2,01,03,04,12,14,22,25,31,32,,,,0.9,0.7,0.7*20

$GNGSA,A,2,68,69,70,71,73,79,80,,,,,,0.9,0.7,0.7*26

$GNGSA,A,2,01,03,04,12,14,22,25,31,32,,,,0.9,0.7,0.7*20

$GNGSA,A,2,68,69,70,71,73,79,80,,,,,,0.9,0.7,0.7*26

$GPGSV,3,1,12,01,18,281,23,03,17,316,18,04,16,250,27,08,,,20*49

$GPGSV,3,2,12,11,02,262,25,12,13,036,19,14,57,073,21,22,29,161,28*73

$GPGSV,3,3,12,25,40,067,21,31,74,254,26,32,59,288,25,18,,,*4C

$GLGSV,3,1,09,78,02,035,16,70,61,326,21,73,14,217,25,80,66,223,23*6E

$GLGSV,3,2,09,79,47,032,18,69,56,135,24,87,02,352,14,71,10,322,23*6C

$GLGSV,3,3,09,68,05,139,19*54

$GPGGA,171028.0,4232.053153,N,08306.809885,W,1,09,0.7,194.1,M,-34.0,M,,*65

$GNGNS,171028.0,4232.053153,N,08306.809885,W,AA,16,0.7,194.1,-34.0,,*5F

$GPVTG,270.3,T,270.3,M,12.3,N,22.7,K,A*24

$GPRMC,171028.0,A,4232.053153,N,08306.809885,W,12.3,270.3,290315,0.0,E,A*2F

$GPGSA,A,2,01,03,04,12,14,22,25,31,32,,,,0.9,0.7,0.7*3E

$GNGSA,A,2,01,03,04,12,14,22,25,31,32,,,,0.9,0.7,0.7*20

$GNGSA,A,2,68,69,70,71,73,79,80,,,,,,0.9,0.7,0.7*26

$GPGSV,3,1,12,01,18,281,23,03,17,316,18,04,16,250,27,08,,,20*49

$GPGSV,3,2,12,11,02,262,25,12,13,036,19,14,57,073,21,22,29,161,28*73

$GPGSV,3,3,12,25,40,067,21,31,74,254,26,32,59,288,25,18,,,*4C

$GLGSV,3,1,09,78,02,035,16,70,61,326,21,73,14,217,25,80,66,223,23*6E

$GLGSV,3,2,09,79,47,032,18,69,56,135,24,87,02,352,14,71,10,322,23*6C

$GLGSV,3,3,09,68,05,139,19*54

$GPGGA,171028.0,4232.053153,N,08306.809885,W,1,09,0.7,194.1,M,-34.0,M,,*65

$GNGNS,171028.0,4232.053153,N,08306.809885,W,AA,16,0.7,194.1,-34.0,,*5F

$GPVTG,270.3,T,270.3,M,12.3,N,22.7,K,A*24

$GPRMC,171028.0,A,4232.053153,N,08306.809885,W,12.3,270.3,290315,0.0,E,A*2F

$GPGSA,A,2,01,03,04,12,14,22,25,31,32,,,,0.9,0.7,0.7*3E

$GNGSA,A,2,01,03,04,12,14,22,25,31,32,,,,0.9,0.7,0.7*20

$GNGSA,A,2,68,69,70,71,73,79,80,,,,,,0.9,0.7,0.7*26

$GPGSV,3,1,12,01,18,281,22,03,17,316,18,04,16,250,26,08,,,26*4F

$GPGSV,3,2,12,11,02,262,24,12,13,036,17,14,57,073,19,22,29,161,27*78

$GPGSV,3,3,12,25,40,067,23,31,74,254,20,32,59,288,28,18,,,*45

$GPGSV,3,1,12,01,18,281,22,03,17,316,18,04,16,250,26,08,,,26*4F

$GPGSV,3,2,12,11,02,262,24,12,13,036,17,14,57,073,19,22,29,161,27*78

$GPGSV,3,3,12,25,40,067,23,31,74,254,20,32,59,288,28,18,,,*45

$GLGSV,3,1,09,78,02,035,16,70,61,326,21,73,14,217,30,80,66,223,20*69

$GLGSV,3,2,09,79,47,032,18,69,56,135,26,87,02,352,14,71,10,322,24*69

$GLGSV,3,3,09,68,05,139,19*54

$GPGGA,171029.0,4232.051024,N,08306.815642,W,1,09,0.7,194.1,M,-34.0,M,,*6F

$GNGNS,171029.0,4232.051024,N,08306.815642,W,AA,16,0.7,194.1,-34.0,,*55

$GPVTG,268.3,T,268.3,M,12.9,N,24.0,K,A*2F

$GPRMC,171029.0,A,4232.051024,N,08306.815642,W,12.9,268.3,290315,0.0,E,A*26

$GPGSA,A,2,01,03,04,12,14,22,25,31,32,,,,0.9,0.7,0.7*3E

$GNGSA,A,2,01,03,04,12,14,22,25,31,32,,,,0.9,0.7,0.7*20

$GNGSA,A,2,68,69,70,71,73,79,80,,,,,,0.9,0.7,0.7*26

$GLGSV,3,1,09,78,02,035,16,70,61,326,21,73,14,217,30,80,66,223,20*69

$GLGSV,3,2,09,79,47,032,18,69,56,135,26,87,02,352,14,71,10,322,24*69

$GLGSV,3,3,09,68,05,139,19*54

$GPGGA,171029.0,4232.051024,N,08306.815642,W,1,09,0.7,194.1,M,-34.0,M,,*6F

$GNGNS,171029.0,4232.051024,N,08306.815642,W,AA,16,0.7,194.1,-34.0,,*55

$GPVTG,268.3,T,268.3,M,12.9,N,24.0,K,A*2F

$GPRMC,171029.0,A,4232.051024,N,08306.815642,W,12.9,268.3,290315,0.0,E,A*26

$GPGSA,A,2,01,03,04,12,14,22,25,31,32,,,,0.9,0.7,0.7*3E

$GNGSA,A,2,01,03,04,12,14,22,25,31,32,,,,0.9,0.7,0.7*20

$GNGSA,A,2,68,69,70,71,73,79,80,,,,,,0.9,0.7,0.7*26

$GPGSV,3,1,12,01,18,281,22,03,17,316,19,04,16,250,25,08,,,26*4D

$GPGSV,3,2,12,11,02,262,23,12,13,036,20,14,57,073,19,22,29,161,26*7A

$GPGSV,3,3,12,25,40,067,23,31,74,254,20,32,59,288,27,18,,,*4A

$GPGSV,3,1,12,01,18,281,22,03,17,316,19,04,16,250,25,08,,,26*4D

$GPGSV,3,2,12,11,02,262,23,12,13,036,20,14,57,073,19,22,29,161,26*7A

$GPGSV,3,3,12,25,40,067,23,31,74,254,20,32,59,288,27,18,,,*4A

$GLGSV,3,1,09,78,02,035,16,70,61,326,21,73,14,217,29,80,66,223,23*62

$GLGSV,3,2,09,79,47,032,17,69,56,135,26,87,02,352,14,71,10,322,25*67

$GLGSV,3,3,09,68,05,139,18*55

$GPGGA,171030.0,4232.050331,N,08306.821574,W,1,09,0.7,192.7,M,-34.0,M,,*60

$GNGNS,171030.0,4232.050331,N,08306.821574,W,AA,16,0.7,192.7,-34.0,,*5A

$GPVTG,266.1,T,266.1,M,16.4,N,30.3,K,A*20

$GPRMC,171030.0,A,4232.050331,N,08306.821574,W,16.4,266.1,290315,0.0,E,A*2C

$GPGSA,A,2,01,03,04,12,14,22,25,31,32,,,,0.9,0.7,0.7*3E

$GNGSA,A,2,01,03,04,12,14,22,25,31,32,,,,0.9,0.7,0.7*20

$GNGSA,A,2,68,69,70,71,73,79,80,,,,,,0.9,0.7,0.7*26

$GLGSV,3,1,09,78,02,035,16,70,61,326,21,73,14,217,29,80,66,223,23*62

$GLGSV,3,2,09,79,47,032,17,69,56,135,26,87,02,352,14,71,10,322,25*67

$GLGSV,3,3,09,68,05,139,18*55

$GPGGA,171030.0,4232.050331,N,08306.821574,W,1,09,0.7,192.7,M,-34.0,M,,*60

$GNGNS,171030.0,4232.050331,N,08306.821574,W,AA,16,0.7,192.7,-34.0,,*5A

$GPVTG,266.1,T,266.1,M,16.4,N,30.3,K,A*20

$GPRMC,171030.0,A,4232.050331,N,08306.821574,W,16.4,266.1,290315,0.0,E,A*2C

$GPGSA,A,2,01,03,04,12,14,22,25,31,32,,,,0.9,0.7,0.7*3E

$GNGSA,A,2,01,03,04,12,14,22,25,31,32,,,,0.9,0.7,0.7*20

$GNGSA,A,2,68,69,70,71,73,79,80,,,,,,0.9,0.7,0.7*26

$GPGSV,3,1,12,01,18,281,21,03,17,316,20,04,16,250,25,08,,,24*46

$GPGSV,3,1,12,01,18,281,21,03,17,316,20,04,16,250,25,08,,,24*46

$GPGSV,3,2,12,11,02,262,23,12,13,036,19,14,57,073,18,22,29,161,24*73

$GPGSV,3,2,12,11,02,262,23,12,13,036,19,14,57,073,18,22,29,161,24*73

$GPGSV,3,3,12,25,40,067,23,31,74,254,20,32,59,288,26,18,,,*4B

$GPGSV,3,3,12,25,40,067,23,31,74,254,20,32,59,288,26,18,,,*4B

$GLGSV,3,1,09,78,02,035,16,70,61,326,21,73,14,217,27,80,66,223,23*6C

$GLGSV,3,2,09,79,47,032,17,69,56,135,25,87,02,352,13,71,10,322,25*63

$GLGSV,3,3,09,68,05,139,19*54

$GPGGA,171031.0,4232.050130,N,08306.829021,W,1,09,0.7,193.0,M,-34.0,M,,*69

$GNGNS,171031.0,4232.050130,N,08306.829021,W,AA,16,0.7,193.0,-34.0,,*53

$GPVTG,267.1,T,267.1,M,18.7,N,34.6,K,A*2C

$GPRMC,171031.0,A,4232.050130,N,08306.829021,W,18.7,267.1,290315,0.0,E,A*2F

$GPGSA,A,2,01,03,04,12,14,22,25,31,32,,,,0.9,0.7,0.7*3E

$GNGSA,A,2,01,03,04,12,14,22,25,31,32,,,,0.9,0.7,0.7*20

$GNGSA,A,2,68,69,70,71,73,79,80,,,,,,0.9,0.7,0.7*26

$GLGSV,3,1,09,78,02,035,16,70,61,326,21,73,14,217,27,80,66,223,23*6C

$GLGSV,3,2,09,79,47,032,17,69,56,135,25,87,02,352,13,71,10,322,25*63

$GLGSV,3,3,09,68,05,139,19*54

$GPGGA,171031.0,4232.050130,N,08306.829021,W,1,09,0.7,193.0,M,-34.0,M,,*69

$GNGNS,171031.0,4232.050130,N,08306.829021,W,AA,16,0.7,193.0,-34.0,,*53

$GPVTG,267.1,T,267.1,M,18.7,N,34.6,K,A*2C

$GPRMC,171031.0,A,4232.050130,N,08306.829021,W,18.7,267.1,290315,0.0,E,A*2F

$GPGSA,A,2,01,03,04,12,14,22,25,31,32,,,,0.9,0.7,0.7*3E

$GNGSA,A,2,01,03,04,12,14,22,25,31,32,,,,0.9,0.7,0.7*20

$GNGSA,A,2,68,69,70,71,73,79,80,,,,,,0.9,0.7,0.7*26

$GPGSV,3,1,12,01,18,281,22,03,17,316,20,04,16,250,26,08,,,23*41

$GPGSV,3,2,12,11,02,262,23,12,13,036,20,14,57,073,18,22,29,161,22*7F

$GPGSV,3,3,12,25,40,067,23,31,74,254,21,32,59,288,26,18,,,*4A

$GPGSV,3,1,12,01,18,281,22,03,17,316,20,04,16,250,26,08,,,23*41

$GPGSV,3,2,12,11,02,262,23,12,13,036,20,14,57,073,18,22,29,161,22*7F

$GPGSV,3,3,12,25,40,067,23,31,74,254,21,32,59,288,26,18,,,*4A

$GLGSV,3,1,09,78,02,035,16,70,61,326,21,73,14,217,27,80,66,223,24*6B

$GLGSV,3,2,09,79,47,032,18,69,56,135,25,87,02,352,19,71,10,322,25*66

$GLGSV,3,3,09,68,05,139,19*54

$GPGGA,171032.0,4232.050281,N,08306.835899,W,1,09,0.7,191.5,M,-34.0,M,,*62

$GNGNS,171032.0,4232.050281,N,08306.835899,W,AA,16,0.7,191.5,-34.0,,*58

$GPVTG,267.4,T,267.4,M,20.5,N,38.0,K,A*2F

$GPRMC,171032.0,A,4232.050281,N,08306.835899,W,20.5,267.4,290315,0.0,E,A*2F

$GPGSA,A,2,01,03,04,12,14,22,25,31,32,,,,0.9,0.7,0.7*3E

$GNGSA,A,2,01,03,04,12,14,22,25,31,32,,,,0.9,0.7,0.7*20

$GNGSA,A,2,68,69,70,71,73,79,80,,,,,,0.9,0.7,0.7*26

$GLGSV,3,1,09,78,02,035,16,70,61,326,21,73,14,217,27,80,66,223,24*6B

$GLGSV,3,2,09,79,47,032,18,69,56,135,25,87,02,352,19,71,10,322,25*66

$GLGSV,3,3,09,68,05,139,19*54

$GPGGA,171032.0,4232.050281,N,08306.835899,W,1,09,0.7,191.5,M,-34.0,M,,*62

$GNGNS,171032.0,4232.050281,N,08306.835899,W,AA,16,0.7,191.5,-34.0,,*58

$GPVTG,267.4,T,267.4,M,20.5,N,38.0,K,A*2F

$GPRMC,171032.0,A,4232.050281,N,08306.835899,W,20.5,267.4,290315,0.0,E,A*2F

$GPGSA,A,2,01,03,04,12,14,22,25,31,32,,,,0.9,0.7,0.7*3E

$GNGSA,A,2,01,03,04,12,14,22,25,31,32,,,,0.9,0.7,0.7*20

$GNGSA,A,2,68,69,70,71,73,79,80,,,,,,0.9,0.7,0.7*26

$GPGSV,3,1,12,01,18,281,19,03,17,316,21,04,16,250,25,08,,,23*4B

$GPGSV,3,2,12,11,02,262,20,12,13,036,20,14,57,073,18,22,29,161,22*7C

$GPGSV,3,3,12,25,40,067,23,31,74,254,19,32,59,288,26,18,,,*41

$GPGSV,3,1,12,01,18,281,19,03,17,316,21,04,16,250,25,08,,,23*4B

$GPGSV,3,2,12,11,02,262,20,12,13,036,20,14,57,073,18,22,29,161,22*7C

$GPGSV,3,3,12,25,40,067,23,31,74,254,19,32,59,288,26,18,,,*41

$GLGSV,3,1,09,78,02,035,16,70,61,326,21,73,14,217,27,80,66,223,22*6D

$GLGSV,3,2,09,79,47,032,19,69,56,135,24,87,02,352,20,71,10,322,24*6D

$GLGSV,3,3,09,68,05,139,17*5A

$GPGGA,171033.0,4232.049715,N,08306.844395,W,1,09,0.7,192.1,M,-34.0,M,,*65

$GNGNS,171033.0,4232.049715,N,08306.844395,W,AA,16,0.7,192.1,-34.0,,*5F

$GPVTG,267.2,T,267.2,M,21.6,N,40.0,K,A*22

$GPRMC,171033.0,A,4232.049715,N,08306.844395,W,21.6,267.2,290315,0.0,E,A*2B

$GPGSA,A,2,01,03,04,12,14,22,25,31,32,,,,0.9,0.7,0.7*3E

$GNGSA,A,2,01,03,04,12,14,22,25,31,32,,,,0.9,0.7,0.7*20

$GNGSA,A,2,68,69,70,71,73,79,80,,,,,,0.9,0.7,0.7*26

$GLGSV,3,1,09,78,02,035,16,70,61,326,21,73,14,217,27,80,66,223,22*6D

$GLGSV,3,2,09,79,47,032,19,69,56,135,24,87,02,352,20,71,10,322,24*6D

$GLGSV,3,3,09,68,05,139,17*5A

$GPGGA,171033.0,4232.049715,N,08306.844395,W,1,09,0.7,192.1,M,-34.0,M,,*65

$GNGNS,171033.0,4232.049715,N,08306.844395,W,AA,16,0.7,192.1,-34.0,,*5F

$GPVTG,267.2,T,267.2,M,21.6,N,40.0,K,A*22

$GPRMC,171033.0,A,4232.049715,N,08306.844395,W,21.6,267.2,290315,0.0,E,A*2B

$GPGSA,A,2,01,03,04,12,14,22,25,31,32,,,,0.9,0.7,0.7*3E

$GNGSA,A,2,01,03,04,12,14,22,25,31,32,,,,0.9,0.7,0.7*20

$GNGSA,A,2,68,69,70,71,73,79,80,,,,,,0.9,0.7,0.7*26

$GPGSV,3,1,12,01,18,281,22,03,17,316,22,04,16,250,25,08,,,24*47

$GPGSV,3,2,12,11,02,262,19,12,13,036,22,14,57,073,15,22,29,161,22*79

$GPGSV,3,3,12,25,40,067,23,31,74,254,21,32,59,288,26,18,,,*4A

$GLGSV,3,1,09,78,02,035,16,70,61,326,21,73,14,217,28,80,66,223,23*63

$GLGSV,3,2,09,79,47,032,18,69,56,135,26,87,02,352,21,71,10,322,25*6E

$GLGSV,3,3,09,68,05,139,17*5A

$GPGGA,171034.0,4232.049187,N,08306.852972,W,1,09,0.7,191.5,M,-34.0,M,,*6C

$GNGNS,171034.0,4232.049187,N,08306.852972,W,AA,16,0.7,191.5,-34.0,,*56

$GPVTG,266.8,T,266.8,M,22.7,N,42.1,K,A*23

$GPRMC,171034.0,A,4232.049187,N,08306.852972,W,22.7,266.8,290315,0.0,E,A*2C

$GPGSA,A,2,01,03,04,12,14,22,25,31,32,,,,0.9,0.7,0.7*3E

$GNGSA,A,2,01,03,04,12,14,22,25,31,32,,,,0.9,0.7,0.7*20

$GNGSA,A,2,68,69,70,71,73,79,80,,,,,,0.9,0.7,0.7*26

$GPGSV,3,1,12,01,18,281,22,03,17,316,22,04,16,250,25,08,,,24*47

$GPGSV,3,2,12,11,02,262,19,12,13,036,22,14,57,073,15,22,29,161,22*79

$GPGSV,3,3,12,25,40,067,23,31,74,254,21,32,59,288,26,18,,,*4A

$GLGSV,3,1,09,78,02,035,16,70,61,326,21,73,14,217,28,80,66,223,23*63

$GLGSV,3,2,09,79,47,032,18,69,56,135,26,87,02,352,21,71,10,322,25*6E

$GLGSV,3,3,09,68,05,139,17*5A

$GPGGA,171034.0,4232.049187,N,08306.852972,W,1,09,0.7,191.5,M,-34.0,M,,*6C

$GNGNS,171034.0,4232.049187,N,08306.852972,W,AA,16,0.7,191.5,-34.0,,*56

$GPVTG,266.8,T,266.8,M,22.7,N,42.1,K,A*23

$GPRMC,171034.0,A,4232.049187,N,08306.852972,W,22.7,266.8,290315,0.0,E,A*2C

$GPGSA,A,2,01,03,04,12,14,22,25,31,32,,,,0.9,0.7,0.7*3E

$GNGSA,A,2,01,03,04,12,14,22,25,31,32,,,,0.9,0.7,0.7*20

$GNGSA,A,2,68,69,70,71,73,79,80,,,,,,0.9,0.7,0.7*26

$GPGSV,3,1,12,01,18,281,21,03,17,316,21,04,16,250,26,08,,,23*43

$GPGSV,3,2,12,11,02,262,19,12,13,036,20,14,57,073,16,22,29,161,23*79

$GPGSV,3,1,12,01,18,281,21,03,17,316,21,04,16,250,26,08,,,23*43

$GPGSV,3,2,12,11,02,262,19,12,13,036,20,14,57,073,16,22,29,161,23*79

$GPGSV,3,3,12,25,40,067,14,31,74,254,20,32,59,288,26,18,,,*4F

$GPGSV,3,3,12,25,40,067,14,31,74,254,20,32,59,288,26,18,,,*4F

$GLGSV,3,1,09,78,02,035,16,70,61,326,21,73,14,217,28,80,66,223,22*62

$GLGSV,3,2,09,79,47,032,16,69,56,135,25,87,02,352,19,71,10,322,25*68

$GLGSV,3,3,09,68,05,139,16*5B

$GPGGA,171035.0,4232.049497,N,08306.861694,W,1,09,0.7,189.7,M,-34.0,M,,*65

$GNGNS,171035.0,4232.049497,N,08306.861694,W,AA,15,0.7,189.7,-34.0,,*5C

$GPVTG,266.7,T,266.7,M,24.1,N,44.6,K,A*22

$GPRMC,171035.0,A,4232.049497,N,08306.861694,W,24.1,266.7,290315,0.0,E,A*21

$GPGSA,A,2,01,03,04,12,14,22,25,31,32,,,,0.9,0.7,0.7*3E

$GNGSA,A,2,01,03,04,12,14,22,25,31,32,,,,0.9,0.7,0.7*20

$GNGSA,A,2,68,69,71,73,79,80,,,,,,,0.9,0.7,0.7*21

$GLGSV,3,1,09,78,02,035,16,70,61,326,21,73,14,217,28,80,66,223,22*62

$GLGSV,3,2,09,79,47,032,16,69,56,135,25,87,02,352,19,71,10,322,25*68

$GLGSV,3,3,09,68,05,139,16*5B

$GPGGA,171035.0,4232.049497,N,08306.861694,W,1,09,0.7,189.7,M,-34.0,M,,*65

$GNGNS,171035.0,4232.049497,N,08306.861694,W,AA,15,0.7,189.7,-34.0,,*5C

$GPVTG,266.7,T,266.7,M,24.1,N,44.6,K,A*22

$GPRMC,171035.0,A,4232.049497,N,08306.861694,W,24.1,266.7,290315,0.0,E,A*21

$GPGSA,A,2,01,03,04,12,14,22,25,31,32,,,,0.9,0.7,0.7*3E

$GNGSA,A,2,01,03,04,12,14,22,25,31,32,,,,0.9,0.7,0.7*20

$GNGSA,A,2,68,69,71,73,79,80,,,,,,,0.9,0.7,0.7*21

$GPGSV,4,1,13,01,18,281,22,03,17,316,18,04,16,250,25,08,,,24*48

$GPGSV,4,2,13,11,02,262,19,12,13,036,20,14,57,073,16,22,29,161,23*7F

$GPGSV,4,3,13,25,40,067,14,31,74,254,21,32,59,288,26,46,,,31*41

$GPGSV,4,4,13,18,,,*72

$GPGSV,4,1,13,01,18,281,22,03,17,316,18,04,16,250,25,08,,,24*48

$GPGSV,4,2,13,11,02,262,19,12,13,036,20,14,57,073,16,22,29,161,23*7F

$GPGSV,4,3,13,25,40,067,14,31,74,254,21,32,59,288,26,46,,,31*41

$GPGSV,4,4,13,18,,,*72

$GLGSV,3,1,09,78,02,035,16,70,61,326,21,73,14,217,28,80,66,223,21*61

$GLGSV,3,2,09,79,47,032,18,69,56,135,25,87,02,352,19,71,10,322,25*66

$GLGSV,3,3,09,68,05,139,18*55

$GPGGA,171036.0,4232.049115,N,08306.871235,W,1,09,0.7,190.7,M,-34.0,M,,*6F

$GNGNS,171036.0,4232.049115,N,08306.871235,W,AA,15,0.7,190.7,-34.0,,*56

$GPVTG,266.4,T,266.4,M,24.7,N,45.7,K,A*24

$GPRMC,171036.0,A,4232.049115,N,08306.871235,W,24.7,266.4,290315,0.0,E,A*26

$GPGSA,A,2,01,03,04,12,14,22,25,31,32,,,,0.9,0.7,0.7*3E

$GNGSA,A,2,01,03,04,12,14,22,25,31,32,,,,0.9,0.7,0.7*20

$GNGSA,A,2,68,69,71,73,79,80,,,,,,,0.9,0.7,0.7*21

$GLGSV,3,1,09,78,02,035,16,70,61,326,21,73,14,217,28,80,66,223,21*61

$GLGSV,3,2,09,79,47,032,18,69,56,135,25,87,02,352,19,71,10,322,25*66

$GLGSV,3,3,09,68,05,139,18*55

$GPGGA,171036.0,4232.049115,N,08306.871235,W,1,09,0.7,190.7,M,-34.0,M,,*6F

$GNGNS,171036.0,4232.049115,N,08306.871235,W,AA,15,0.7,190.7,-34.0,,*56

$GPVTG,266.4,T,266.4,M,24.7,N,45.7,K,A*24

$GPRMC,171036.0,A,4232.049115,N,08306.871235,W,24.7,266.4,290315,0.0,E,A*26

$GPGSA,A,2,01,03,04,12,14,22,25,31,32,,,,0.9,0.7,0.7*3E

$GNGSA,A,2,01,03,04,12,14,22,25,31,32,,,,0.9,0.7,0.7*20

$GNGSA,A,2,68,69,71,73,79,80,,,,,,,0.9,0.7,0.7*21

$GPGSV,4,1,13,01,18,281,23,03,17,316,20,04,16,250,27,08,,,24*40

$GPGSV,4,2,13,11,02,262,19,12,13,036,21,14,57,073,15,22,29,161,24*7A

$GPGSV,4,1,13,01,18,281,23,03,17,316,20,04,16,250,27,08,,,24*40

$GPGSV,4,2,13,11,02,262,19,12,13,036,21,14,57,073,15,22,29,161,24*7A

$GPGSV,4,3,13,25,40,067,14,31,74,254,21,32,59,288,27,46,,,29*49

$GPGSV,4,3,13,25,40,067,14,31,74,254,21,32,59,288,27,46,,,29*49

$GPGSV,4,4,13,18,,,*72

$GPGSV,4,4,13,18,,,*72

$GLGSV,3,1,09,78,02,035,16,70,61,326,21,73,15,217,27,80,66,223,21*6F

$GLGSV,3,2,09,79,47,032,19,69,56,135,25,87,02,352,19,71,10,322,24*66

$GLGSV,3,3,09,68,05,139,18*55

$GPGGA,171037.0,4232.049206,N,08306.880301,W,1,09,0.7,189.8,M,-34.0,M,,*60

$GNGNS,171037.0,4232.049206,N,08306.880301,W,AA,15,0.7,189.8,-34.0,,*59

$GPVTG,266.6,T,266.6,M,24.8,N,45.8,K,A*24

$GPRMC,171037.0,A,4232.049206,N,08306.880301,W,24.8,266.6,290315,0.0,E,A*23

$GPGSA,A,2,01,03,04,12,14,22,25,31,32,,,,0.9,0.7,0.7*3E

$GNGSA,A,2,01,03,04,12,14,22,25,31,32,,,,0.9,0.7,0.7*20

$GNGSA,A,2,68,69,71,73,79,80,,,,,,,0.9,0.7,0.7*21

$GLGSV,3,1,09,78,02,035,16,70,61,326,21,73,15,217,27,80,66,223,21*6F

$GLGSV,3,2,09,79,47,032,19,69,56,135,25,87,02,352,19,71,10,322,24*66

$GLGSV,3,3,09,68,05,139,18*55

$GPGGA,171037.0,4232.049206,N,08306.880301,W,1,09,0.7,189.8,M,-34.0,M,,*60

$GNGNS,171037.0,4232.049206,N,08306.880301,W,AA,15,0.7,189.8,-34.0,,*59

$GPVTG,266.6,T,266.6,M,24.8,N,45.8,K,A*24

$GPRMC,171037.0,A,4232.049206,N,08306.880301,W,24.8,266.6,290315,0.0,E,A*23

$GPGSA,A,2,01,03,04,12,14,22,25,31,32,,,,0.9,0.7,0.7*3E

$GNGSA,A,2,01,03,04,12,14,22,25,31,32,,,,0.9,0.7,0.7*20

$GNGSA,A,2,68,69,71,73,79,80,,,,,,,0.9,0.7,0.7*21

$GPGSV,4,1,13,01,18,281,22,03,17,316,20,04,16,250,26,08,,,23*47

$GPGSV,4,2,13,11,02,262,19,12,13,036,21,14,57,073,17,22,29,161,24*78

$GPGSV,4,3,13,25,40,067,14,31,74,254,23,32,59,288,26,46,,,29*4A

$GPGSV,4,4,13,18,,,*72

$GPGSV,4,1,13,01,18,281,22,03,17,316,20,04,16,250,26,08,,,23*47

$GPGSV,4,2,13,11,02,262,19,12,13,036,21,14,57,073,17,22,29,161,24*78

$GPGSV,4,3,13,25,40,067,14,31,74,254,23,32,59,288,26,46,,,29*4A

$GPGSV,4,4,13,18,,,*72

$GLGSV,3,1,09,78,02,035,16,70,61,326,21,73,15,217,27,80,66,223,21*6F

$GLGSV,3,2,09,79,47,032,18,69,56,135,26,87,02,352,19,71,10,322,26*66

$GLGSV,3,3,09,68,05,139,18*55

$GPGGA,171038.0,4232.048503,N,08306.889636,W,1,09,0.7,188.8,M,-34.0,M,,*65

$GNGNS,171038.0,4232.048503,N,08306.889636,W,AA,15,0.7,188.8,-34.0,,*5C

$GPVTG,266.9,T,266.9,M,25.0,N,46.2,K,A*24

$GPRMC,171038.0,A,4232.048503,N,08306.889636,W,25.0,266.9,290315,0.0,E,A*21

$GLGSV,3,1,09,78,02,035,16,70,61,326,21,73,15,217,27,80,66,223,21*6F

$GLGSV,3,2,09,79,47,032,18,69,56,135,26,87,02,352,19,71,10,322,26*66

$GLGSV,3,3,09,68,05,139,18*55

$GPGGA,171038.0,4232.048503,N,08306.889636,W,1,09,0.7,188.8,M,-34.0,M,,*65

$GNGNS,171038.0,4232.048503,N,08306.889636,W,AA,15,0.7,188.8,-34.0,,*5C

$GPVTG,266.9,T,266.9,M,25.0,N,46.2,K,A*24

$GPRMC,171038.0,A,4232.048503,N,08306.889636,W,25.0,266.9,290315,0.0,E,A*21

$GPGSA,A,2,01,03,04,12,14,22,25,31,32,,,,0.9,0.7,0.7*3E

$GNGSA,A,2,01,03,04,12,14,22,25,31,32,,,,0.9,0.7,0.7*20

$GNGSA,A,2,68,69,71,73,79,80,,,,,,,0.9,0.7,0.7*21

$GPGSA,A,2,01,03,04,12,14,22,25,31,32,,,,0.9,0.7,0.7*3E

$GNGSA,A,2,01,03,04,12,14,22,25,31,32,,,,0.9,0.7,0.7*20

$GNGSA,A,2,68,69,71,73,79,80,,,,,,,0.9,0.7,0.7*21

$GPGSV,4,1,13,01,18,281,21,03,17,316,21,04,16,250,28,08,,,23*4B

$GPGSV,4,2,13,11,02,262,19,12,13,036,17,14,57,073,17,22,29,161,22*7B

$GPGSV,4,3,13,25,40,067,14,31,74,254,21,32,59,288,26,46,,,29*48

$GPGSV,4,4,13,18,,,*72

$GLGSV,3,1,09,78,02,035,16,70,61,326,21,73,15,217,27,80,66,223,22*6C

$GLGSV,3,2,09,79,47,032,19,69,56,135,25,87,02,352,15,71,10,322,25*6B

$GLGSV,3,3,09,68,05,139,18*55

$GPGGA,171039.0,4232.047837,N,08306.898156,W,1,09,0.7,187.1,M,-34.0,M,,*66

$GNGNS,171039.0,4232.047837,N,08306.898156,W,AA,15,0.7,187.1,-34.0,,*5F

$GPVTG,267.2,T,267.2,M,24.7,N,45.8,K,A*2B

$GPRMC,171039.0,A,4232.047837,N,08306.898156,W,24.7,267.2,290315,0.0,E,A*28

$GPGSA,A,2,01,03,04,12,14,22,25,31,32,,,,0.9,0.7,0.7*3E

$GNGSA,A,2,01,03,04,12,14,22,25,31,32,,,,0.9,0.7,0.7*20

$GNGSA,A,2,68,69,71,73,79,80,,,,,,,0.9,0.7,0.7*21

$GPGSV,4,1,13,01,18,281,21,03,17,316,21,04,16,250,28,08,,,23*4B

$GPGSV,4,2,13,11,02,262,19,12,13,036,17,14,57,073,17,22,29,161,22*7B

$GPGSV,4,3,13,25,40,067,14,31,74,254,21,32,59,288,26,46,,,29*48

$GPGSV,4,4,13,18,,,*72

$GLGSV,3,1,09,78,02,035,16,70,61,326,21,73,15,217,27,80,66,223,22*6C

$GLGSV,3,2,09,79,47,032,19,69,56,135,25,87,02,352,15,71,10,322,25*6B

$GLGSV,3,3,09,68,05,139,18*55

$GPGGA,171039.0,4232.047837,N,08306.898156,W,1,09,0.7,187.1,M,-34.0,M,,*66

$GNGNS,171039.0,4232.047837,N,08306.898156,W,AA,15,0.7,187.1,-34.0,,*5F

$GPVTG,267.2,T,267.2,M,24.7,N,45.8,K,A*2B

$GPRMC,171039.0,A,4232.047837,N,08306.898156,W,24.7,267.2,290315,0.0,E,A*28

$GPGSA,A,2,01,03,04,12,14,22,25,31,32,,,,0.9,0.7,0.7*3E

$GNGSA,A,2,01,03,04,12,14,22,25,31,32,,,,0.9,0.7,0.7*20

$GNGSA,A,2,68,69,71,73,79,80,,,,,,,0.9,0.7,0.7*21

$GPGSV,4,1,13,01,18,281,20,03,17,316,21,04,16,250,26,08,,,21*46

$GPGSV,4,1,13,01,18,281,20,03,17,316,21,04,16,250,26,08,,,21*46

$GPGSV,4,2,13,11,02,262,19,12,13,036,17,14,57,073,15,22,29,161,21*7A

$GPGSV,4,3,13,25,40,067,14,31,74,254,21,32,59,288,24,46,,,29*4A

$GPGSV,4,2,13,11,02,262,19,12,13,036,17,14,57,073,15,22,29,161,21*7A

$GPGSV,4,3,13,25,40,067,14,31,74,254,21,32,59,288,24,46,,,29*4A

$GPGSV,4,4,13,18,,,*72

$GPGSV,4,4,13,18,,,*72

$GLGSV,3,1,09,78,02,035,16,70,61,326,10,73,15,217,26,80,66,223,21*6C

$GLGSV,3,2,09,79,47,032,20,69,56,135,25,87,02,352,15,71,10,322,25*61

$GLGSV,3,3,09,68,05,139,18*55

$GPGGA,171040.0,4232.047311,N,08306.906860,W,1,09,0.7,186.3,M,-34.0,M,,*6E

$GNGNS,171040.0,4232.047311,N,08306.906860,W,AA,16,0.7,186.3,-34.0,,*54

$GPVTG,267.0,T,267.0,M,23.4,N,43.4,K,A*25

$GPRMC,171040.0,A,4232.047311,N,08306.906860,W,23.4,267.0,290315,0.0,E,A*25

$GPGSA,A,2,01,03,04,12,14,22,25,31,32,,,,0.9,0.7,0.6*3F

$GNGSA,A,2,01,03,04,12,14,22,25,31,32,,,,0.9,0.7,0.6*21

$GNGSA,A,2,68,69,70,71,73,79,80,,,,,,0.9,0.7,0.6*27

$GLGSV,3,1,09,78,02,035,16,70,61,326,10,73,15,217,26,80,66,223,21*6C

$GLGSV,3,2,09,79,47,032,20,69,56,135,25,87,02,352,15,71,10,322,25*61

$GLGSV,3,3,09,68,05,139,18*55

$GPGGA,171040.0,4232.047311,N,08306.906860,W,1,09,0.7,186.3,M,-34.0,M,,*6E

$GNGNS,171040.0,4232.047311,N,08306.906860,W,AA,16,0.7,186.3,-34.0,,*54

$GPVTG,267.0,T,267.0,M,23.4,N,43.4,K,A*25

$GPRMC,171040.0,A,4232.047311,N,08306.906860,W,23.4,267.0,290315,0.0,E,A*25

$GPGSA,A,2,01,03,04,12,14,22,25,31,32,,,,0.9,0.7,0.6*3F

$GNGSA,A,2,01,03,04,12,14,22,25,31,32,,,,0.9,0.7,0.6*21

$GNGSA,A,2,68,69,70,71,73,79,80,,,,,,0.9,0.7,0.6*27

$GPGSV,4,1,13,01,18,281,21,03,17,316,21,04,16,250,25,08,,,23*46

$GPGSV,4,2,13,11,02,262,19,12,13,036,18,14,57,073,15,22,29,161,24*70

$GPGSV,4,1,13,01,18,281,21,03,17,316,21,04,16,250,25,08,,,23*46

$GPGSV,4,2,13,11,02,262,19,12,13,036,18,14,57,073,15,22,29,161,24*70

$GPGSV,4,3,13,25,40,067,14,31,74,254,22,32,59,288,27,46,,,29*4A

$GPGSV,4,4,13,18,,,*72

$GLGSV,3,1,09,78,02,035,16,70,61,326,18,73,15,217,27,80,66,223,21*65

$GLGSV,3,2,09,79,47,032,20,69,56,135,26,87,02,352,18,71,10,322,24*6E

$GLGSV,3,3,09,68,05,139,18*55

$GPGGA,171041.0,4232.046484,N,08306.915955,W,1,09,0.7,187.8,M,-34.0,M,,*6A

$GNGNS,171041.0,4232.046484,N,08306.915955,W,AA,16,0.7,187.8,-34.0,,*50

$GPVTG,265.3,T,265.3,M,22.8,N,42.1,K,A*2C

$GPRMC,171041.0,A,4232.046484,N,08306.915955,W,22.8,265.3,290315,0.0,E,A*27

$GPGSA,A,2,01,03,04,12,14,22,25,31,32,,,,0.9,0.7,0.6*3F

$GNGSA,A,2,01,03,04,12,14,22,25,31,32,,,,0.9,0.7,0.6*21

$GNGSA,A,2,68,69,70,71,73,79,80,,,,,,0.9,0.7,0.6*27

$GPGSV,4,3,13,25,40,067,14,31,74,254,22,32,59,288,27,46,,,29*4A

$GPGSV,4,4,13,18,,,*72

$GLGSV,3,1,09,78,02,035,16,70,61,326,18,73,15,217,27,80,66,223,21*65

$GLGSV,3,2,09,79,47,032,20,69,56,135,26,87,02,352,18,71,10,322,24*6E

$GLGSV,3,3,09,68,05,139,18*55

$GPGGA,171041.0,4232.046484,N,08306.915955,W,1,09,0.7,187.8,M,-34.0,M,,*6A

$GNGNS,171041.0,4232.046484,N,08306.915955,W,AA,16,0.7,187.8,-34.0,,*50

$GPVTG,265.3,T,265.3,M,22.8,N,42.1,K,A*2C

$GPRMC,171041.0,A,4232.046484,N,08306.915955,W,22.8,265.3,290315,0.0,E,A*27

$GPGSA,A,2,01,03,04,12,14,22,25,31,32,,,,0.9,0.7,0.6*3F

$GNGSA,A,2,01,03,04,12,14,22,25,31,32,,,,0.9,0.7,0.6*21

$GNGSA,A,2,68,69,70,71,73,79,80,,,,,,0.9,0.7,0.6*27

$GPGSV,4,1,13,01,18,281,20,03,17,316,21,04,16,250,24,08,,,24*41

$GPGSV,4,2,13,11,02,262,19,12,13,036,18,14,57,073,16,22,29,161,23*74

$GPGSV,4,3,13,25,40,067,14,31,74,254,21,32,59,288,28,46,,,29*46

$GPGSV,4,4,13,18,,,*72

$GLGSV,3,1,09,78,02,035,16,70,61,326,16,73,15,217,28,80,66,223,20*65

$GLGSV,3,2,09,79,47,032,20,69,56,135,24,87,02,352,23,71,10,322,22*62

$GLGSV,3,3,09,68,05,139,15*58

$GPGGA,171042.0,4232.045388,N,08306.923941,W,1,09,0.7,186.6,M,-34.0,M,,*6E

$GNGNS,171042.0,4232.045388,N,08306.923941,W,AA,16,0.7,186.6,-34.0,,*54

$GPVTG,264.5,T,264.5,M,21.7,N,40.1,K,A*22

$GPRMC,171042.0,A,4232.045388,N,08306.923941,W,21.7,264.5,290315,0.0,E,A*27

$GPGSA,A,2,01,03,04,12,14,22,25,31,32,,,,0.9,0.7,0.6*3F

$GNGSA,A,2,01,03,04,12,14,22,25,31,32,,,,0.9,0.7,0.6*21

$GNGSA,A,2,68,69,70,71,73,79,80,,,,,,0.9,0.7,0.6*27

$GPGSV,4,1,13,01,18,281,20,03,17,316,21,04,16,250,24,08,,,24*41

$GPGSV,4,2,13,11,02,262,19,12,13,036,18,14,57,073,16,22,29,161,23*74

$GPGSV,4,3,13,25,40,067,14,31,74,254,21,32,59,288,28,46,,,29*46

$GPGSV,4,4,13,18,,,*72

$GLGSV,3,1,09,78,02,035,16,70,61,326,16,73,15,217,28,80,66,223,20*65

$GLGSV,3,2,09,79,47,032,20,69,56,135,24,87,02,352,23,71,10,322,22*62

$GLGSV,3,3,09,68,05,139,15*58

$GPGGA,171042.0,4232.045388,N,08306.923941,W,1,09,0.7,186.6,M,-34.0,M,,*6E

$GNGNS,171042.0,4232.045388,N,08306.923941,W,AA,16,0.7,186.6,-34.0,,*54

$GPVTG,264.5,T,264.5,M,21.7,N,40.1,K,A*22

$GPRMC,171042.0,A,4232.045388,N,08306.923941,W,21.7,264.5,290315,0.0,E,A*27

$GPGSA,A,2,01,03,04,12,14,22,25,31,32,,,,0.9,0.7,0.6*3F

$GNGSA,A,2,01,03,04,12,14,22,25,31,32,,,,0.9,0.7,0.6*21

$GNGSA,A,2,68,69,70,71,73,79,80,,,,,,0.9,0.7,0.6*27

$GPGSV,4,1,13,01,18,281,17,03,17,316,19,04,16,250,23,08,,,23*4E

$GPGSV,4,2,13,11,02,262,14,12,13,036,18,14,57,073,16,22,29,161,21*7B

$GPGSV,4,3,13,25,40,067,14,31,74,254,20,32,59,288,27,46,,,29*48

$GPGSV,4,4,13,18,,,*72

$GLGSV,3,1,09,78,02,035,16,70,61,326,18,73,15,217,27,80,66,223,21*65

$GLGSV,3,2,09,79,47,032,13,69,56,135,25,87,02,352,20,71,10,322,23*61

$GLGSV,3,3,09,68,05,139,15*58

$GPGGA,171043.0,4232.044681,N,08306.931481,W,1,09,0.7,187.4,M,-34.0,M,,*63

$GNGNS,171043.0,4232.044681,N,08306.931481,W,AA,16,0.7,187.4,-34.0,,*59

$GPVTG,266.0,T,266.0,M,21.1,N,39.1,K,A*2A

$GPRMC,171043.0,A,4232.044681,N,08306.931481,W,21.1,266.0,290315,0.0,E,A*28

$GPGSA,A,2,01,03,04,12,14,22,25,31,32,,,,0.9,0.7,0.6*3F

$GNGSA,A,2,01,03,04,12,14,22,25,31,32,,,,0.9,0.7,0.6*21

$GNGSA,A,2,68,69,70,71,73,79,80,,,,,,0.9,0.7,0.6*27

$GPGSV,4,1,13,01,18,281,17,03,17,316,19,04,16,250,23,08,,,23*4E

$GPGSV,4,2,13,11,02,262,14,12,13,036,18,14,57,073,16,22,29,161,21*7B

$GPGSV,4,3,13,25,40,067,14,31,74,254,20,32,59,288,27,46,,,29*48

$GPGSV,4,4,13,18,,,*72

$GLGSV,3,1,09,78,02,035,16,70,61,326,18,73,15,217,27,80,66,223,21*65

$GLGSV,3,2,09,79,47,032,13,69,56,135,25,87,02,352,20,71,10,322,23*61

$GLGSV,3,3,09,68,05,139,15*58

$GPGGA,171043.0,4232.044681,N,08306.931481,W,1,09,0.7,187.4,M,-34.0,M,,*63

$GNGNS,171043.0,4232.044681,N,08306.931481,W,AA,16,0.7,187.4,-34.0,,*59

$GPVTG,266.0,T,266.0,M,21.1,N,39.1,K,A*2A

$GPRMC,171043.0,A,4232.044681,N,08306.931481,W,21.1,266.0,290315,0.0,E,A*28

$GPGSA,A,2,01,03,04,12,14,22,25,31,32,,,,0.9,0.7,0.6*3F

$GNGSA,A,2,01,03,04,12,14,22,25,31,32,,,,0.9,0.7,0.6*21

$GNGSA,A,2,68,69,70,71,73,79,80,,,,,,0.9,0.7,0.6*27

$GPGSV,4,1,13,01,18,281,17,03,17,316,19,04,16,250,23,08,,,22*4F

$GPGSV,4,1,13,01,18,281,17,03,17,316,19,04,16,250,23,08,,,22*4F

$GPGSV,4,2,13,11,02,262,22,12,13,036,18,14,57,073,16,22,29,161,21*7E

$GPGSV,4,3,13,25,40,067,17,31,74,254,20,32,59,288,24,46,,,29*48

$GPGSV,4,4,13,18,,,*72

$GLGSV,3,1,09,70,61,326,18,73,15,217,27,80,66,223,21,79,47,032,20*67

$GPGSV,4,2,13,11,02,262,22,12,13,036,18,14,57,073,16,22,29,161,21*7E

$GPGSV,4,3,13,25,40,067,17,31,74,254,20,32,59,288,24,46,,,29*48

$GPGSV,4,4,13,18,,,*72

$GLGSV,3,1,09,70,61,326,18,73,15,217,27,80,66,223,21,79,47,032,20*67

$GLGSV,3,2,09,69,56,135,25,87,02,352,20,71,10,322,23,68,05,139,15*6B

$GLGSV,3,3,09,,02,035,*58

$GLGSV,3,2,09,69,56,135,25,87,02,352,20,71,10,322,23,68,05,139,15*6B

$GLGSV,3,3,09,,02,035,*58

$GPGGA,171044.0,4232.043674,N,08306.940117,W,1,09,0.7,187.7,M,-34.0,M,,*66

$GNGNS,171044.0,4232.043674,N,08306.940117,W,AA,16,0.7,187.7,-34.0,,*5C

$GPGGA,171044.0,4232.043674,N,08306.940117,W,1,09,0.7,187.7,M,-34.0,M,,*66

$GNGNS,171044.0,4232.043674,N,08306.940117,W,AA,16,0.7,187.7,-34.0,,*5C

$GPVTG,266.7,T,266.7,M,23.2,N,43.1,K,A*26

$GPRMC,171044.0,A,4232.043674,N,08306.940117,W,23.2,266.7,290315,0.0,E,A*28

$GPGSA,A,2,01,03,04,12,14,22,25,31,32,,,,0.9,0.7,0.6*3F

$GPVTG,266.7,T,266.7,M,23.2,N,43.1,K,A*26

$GPRMC,171044.0,A,4232.043674,N,08306.940117,W,23.2,266.7,290315,0.0,E,A*28

$GPGSA,A,2,01,03,04,12,14,22,25,31,32,,,,0.9,0.7,0.6*3F

$GNGSA,A,2,01,03,04,12,14,22,25,31,32,,,,0.9,0.7,0.6*21

$GNGSA,A,2,68,69,70,71,73,79,80,,,,,,0.9,0.7,0.6*27

$GNGSA,A,2,01,03,04,12,14,22,25,31,32,,,,0.9,0.7,0.6*21

$GNGSA,A,2,68,69,70,71,73,79,80,,,,,,0.9,0.7,0.6*27

$GPGSV,4,1,13,01,18,281,17,03,17,316,19,04,16,250,16,08,,,22*49

$GPGSV,4,2,13,11,02,262,24,12,13,036,18,14,57,073,16,22,29,161,18*72

$GPGSV,4,3,13,25,40,067,17,31,74,254,20,32,59,288,24,46,,,29*48

$GPGSV,4,4,13,18,,,*72

$GLGSV,3,1,09,70,61,326,14,73,15,217,27,80,66,223,21,79,47,032,17*6F

$GLGSV,3,2,09,69,56,135,20,87,02,352,20,71,10,322,23,68,05,139,15*6E

$GLGSV,3,3,09,78,02,035,*57

$GPGGA,171045.0,4232.043674,N,08306.949477,W,1,09,0.7,187.7,M,-34.0,M,,*6D

$GNGNS,171045.0,4232.043674,N,08306.949477,W,AA,16,0.7,187.7,-34.0,,*57

$GPVTG,267.3,T,267.3,M,24.0,N,44.4,K,A*21

$GPRMC,171045.0,A,4232.043674,N,08306.949477,W,24.0,267.3,290315,0.0,E,A*23

$GPGSA,A,2,01,03,04,12,14,22,25,31,32,,,,0.9,0.7,0.6*3F

$GNGSA,A,2,01,03,04,12,14,22,25,31,32,,,,0.9,0.7,0.6*21

$GNGSA,A,2,68,69,70,71,73,79,80,,,,,,0.9,0.7,0.6*27

$GPGSV,4,1,13,01,18,281,17,03,17,316,19,04,16,250,16,08,,,22*49

$GPGSV,4,2,13,11,02,262,24,12,13,036,18,14,57,073,16,22,29,161,18*72

$GPGSV,4,3,13,25,40,067,17,31,74,254,20,32,59,288,24,46,,,29*48

$GPGSV,4,4,13,18,,,*72

$GLGSV,3,1,09,70,61,326,14,73,15,217,27,80,66,223,21,79,47,032,17*6F

$GLGSV,3,2,09,69,56,135,20,87,02,352,20,71,10,322,23,68,05,139,15*6E

$GLGSV,3,3,09,78,02,035,*57

$GPGGA,171045.0,4232.043674,N,08306.949477,W,1,09,0.7,187.7,M,-34.0,M,,*6D

$GNGNS,171045.0,4232.043674,N,08306.949477,W,AA,16,0.7,187.7,-34.0,,*57

$GPVTG,267.3,T,267.3,M,24.0,N,44.4,K,A*21

$GPRMC,171045.0,A,4232.043674,N,08306.949477,W,24.0,267.3,290315,0.0,E,A*23

$GPGSA,A,2,01,03,04,12,14,22,25,31,32,,,,0.9,0.7,0.6*3F

$GNGSA,A,2,01,03,04,12,14,22,25,31,32,,,,0.9,0.7,0.6*21

$GNGSA,A,2,68,69,70,71,73,79,80,,,,,,0.9,0.7,0.6*27

$GPGSV,4,1,13,01,18,281,17,03,17,316,15,04,16,250,18,08,,,15*4F

$GPGSV,4,2,13,11,02,262,26,12,13,036,18,14,57,073,16,22,29,161,18*70

$GPGSV,4,1,13,01,18,281,17,03,17,316,15,04,16,250,18,08,,,15*4F

$GPGSV,4,2,13,11,02,262,26,12,13,036,18,14,57,073,16,22,29,161,18*70

$GPGSV,4,3,13,25,40,067,17,31,74,254,17,32,59,288,18,46,,,29*43

$GPGSV,4,3,13,25,40,067,17,31,74,254,17,32,59,288,18,46,,,29*43

$GPGSV,4,4,13,18,,,*72

$GPGSV,4,4,13,18,,,*72

$GLGSV,3,1,09,70,61,326,14,73,15,217,17,80,66,223,21,79,47,032,17*6C

$GLGSV,3,2,09,69,56,135,20,87,02,352,20,71,10,322,23,68,05,139,15*6E

$GLGSV,3,3,09,78,02,035,*57

$GPGGA,171046.0,4232.042874,N,08306.959674,W,1,09,0.7,186.7,M,-34.0,M,,*60

$GNGNS,171046.0,4232.042874,N,08306.959674,W,AA,16,0.7,186.7,-34.0,,*5A

$GPVTG,267.6,T,267.6,M,25.5,N,47.2,K,A*20

$GPRMC,171046.0,A,4232.042874,N,08306.959674,W,25.5,267.6,290315,0.0,E,A*2E

$GPGSA,A,2,01,03,04,12,14,22,25,31,32,,,,0.9,0.7,0.6*3F

$GNGSA,A,2,01,03,04,12,14,22,25,31,32,,,,0.9,0.7,0.6*21

$GNGSA,A,2,68,69,70,71,73,79,80,,,,,,0.9,0.7,0.6*27

$GLGSV,3,1,09,70,61,326,14,73,15,217,17,80,66,223,21,79,47,032,17*6C

$GLGSV,3,2,09,69,56,135,20,87,02,352,20,71,10,322,23,68,05,139,15*6E

$GLGSV,3,3,09,78,02,035,*57

$GPGGA,171046.0,4232.042874,N,08306.959674,W,1,09,0.7,186.7,M,-34.0,M,,*60

$GNGNS,171046.0,4232.042874,N,08306.959674,W,AA,16,0.7,186.7,-34.0,,*5A

$GPVTG,267.6,T,267.6,M,25.5,N,47.2,K,A*20

$GPRMC,171046.0,A,4232.042874,N,08306.959674,W,25.5,267.6,290315,0.0,E,A*2E

$GPGSA,A,2,01,03,04,12,14,22,25,31,32,,,,0.9,0.7,0.6*3F

$GNGSA,A,2,01,03,04,12,14,22,25,31,32,,,,0.9,0.7,0.6*21

$GNGSA,A,2,68,69,70,71,73,79,80,,,,,,0.9,0.7,0.6*27

$GPGSV,4,1,13,01,18,281,14,03,17,316,15,04,16,250,18,08,,,15*4C

$GPGSV,4,2,13,11,02,262,26,12,13,036,18,14,57,073,16,22,29,161,18*70

$GPGSV,4,3,13,25,40,067,17,31,74,254,19,32,59,288,20,46,,,29*46

$GPGSV,4,4,13,18,,,*72

$GPGSV,4,1,13,01,18,281,14,03,17,316,15,04,16,250,18,08,,,15*4C

$GPGSV,4,2,13,11,02,262,26,12,13,036,18,14,57,073,16,22,29,161,18*70

$GPGSV,4,3,13,25,40,067,17,31,74,254,19,32,59,288,20,46,,,29*46

$GPGSV,4,4,13,18,,,*72

$GLGSV,3,1,09,70,61,326,14,73,15,217,17,80,66,223,14,79,47,032,15*68

$GLGSV,3,2,09,69,56,135,19,87,02,352,20,71,10,322,23,68,05,139,15*64

$GLGSV,3,3,09,78,02,035,*57

$GLGSV,3,1,09,70,61,326,14,73,15,217,17,80,66,223,14,79,47,032,15*68

$GLGSV,3,2,09,69,56,135,19,87,02,352,20,71,10,322,23,68,05,139,15*64

$GLGSV,3,3,09,78,02,035,*57

$GPGGA,171047.0,4232.041362,N,08306.970429,W,1,09,0.7,186.5,M,-34.0,M,,*6D

$GPGGA,171047.0,4232.041362,N,08306.970429,W,1,09,0.7,186.5,M,-34.0,M,,*6D

$GNGNS,171047.0,4232.041362,N,08306.970429,W,AA,16,0.7,186.5,-34.0,,*57

$GPVTG,267.8,T,267.8,M,27.2,N,50.5,K,A*24

$GPRMC,171047.0,A,4232.041362,N,08306.970429,W,27.2,267.8,290315,0.0,E,A*2A

$GPGSA,A,2,01,03,04,12,14,22,25,31,32,,,,0.9,0.7,0.6*3F

$GNGNS,171047.0,4232.041362,N,08306.970429,W,AA,16,0.7,186.5,-34.0,,*57

$GPVTG,267.8,T,267.8,M,27.2,N,50.5,K,A*24

$GPRMC,171047.0,A,4232.041362,N,08306.970429,W,27.2,267.8,290315,0.0,E,A*2A

$GPGSA,A,2,01,03,04,12,14,22,25,31,32,,,,0.9,0.7,0.6*3F

$GNGSA,A,2,01,03,04,12,14,22,25,31,32,,,,0.9,0.7,0.6*21

$GNGSA,A,2,01,03,04,12,14,22,25,31,32,,,,0.9,0.7,0.6*21

$GNGSA,A,2,68,69,70,71,73,79,80,,,,,,0.9,0.7,0.6*27

$GNGSA,A,2,68,69,70,71,73,79,80,,,,,,0.9,0.7,0.6*27

$GPGSV,4,1,13,01,18,281,19,03,17,316,16,04,16,250,23,08,,,15*4A

$GPGSV,4,1,13,01,18,281,19,03,17,316,16,04,16,250,23,08,,,15*4A

$GPGSV,4,2,13,11,02,262,21,12,13,036,18,14,57,073,16,22,29,161,18*77

$GPGSV,4,3,13,25,40,067,17,31,74,254,19,32,59,288,18,46,,,29*4D

$GPGSV,4,4,13,18,,,*72

$GPGSV,4,2,13,11,02,262,21,12,13,036,18,14,57,073,16,22,29,161,18*77

$GPGSV,4,3,13,25,40,067,17,31,74,254,19,32,59,288,18,46,,,29*4D

$GPGSV,4,4,13,18,,,*72

$GLGSV,3,1,09,70,61,326,14,73,15,217,20,80,66,223,14,79,47,032,15*6C

$GLGSV,3,2,09,69,56,135,19,87,02,352,20,71,10,322,12,68,05,139,15*66

$GLGSV,3,3,09,78,02,035,*57

$GPGGA,171048.0,4232.041903,N,08306.977599,W,1,09,0.7,187.5,M,-34.0,M,,*63

$GNGNS,171048.0,4232.041903,N,08306.977599,W,AA,16,0.7,187.5,-34.0,,*59

$GPVTG,267.9,T,267.9,M,23.3,N,43.1,K,A*27

$GPRMC,171048.0,A,4232.041903,N,08306.977599,W,23.3,267.9,290315,0.0,E,A*21

$GPGSA,A,2,01,03,04,12,14,22,25,31,32,,,,0.9,0.7,0.6*3F

$GNGSA,A,2,01,03,04,12,14,22,25,31,32,,,,0.9,0.7,0.6*21

$GNGSA,A,2,68,69,70,71,73,79,80,,,,,,0.9,0.7,0.6*27

$GLGSV,3,1,09,70,61,326,14,73,15,217,20,80,66,223,14,79,47,032,15*6C

$GLGSV,3,2,09,69,56,135,19,87,02,352,20,71,10,322,12,68,05,139,15*66

$GLGSV,3,3,09,78,02,035,*57

$GPGGA,171048.0,4232.041903,N,08306.977599,W,1,09,0.7,187.5,M,-34.0,M,,*63

$GNGNS,171048.0,4232.041903,N,08306.977599,W,AA,16,0.7,187.5,-34.0,,*59

$GPVTG,267.9,T,267.9,M,23.3,N,43.1,K,A*27

$GPRMC,171048.0,A,4232.041903,N,08306.977599,W,23.3,267.9,290315,0.0,E,A*21

$GPGSA,A,2,01,03,04,12,14,22,25,31,32,,,,0.9,0.7,0.6*3F

$GNGSA,A,2,01,03,04,12,14,22,25,31,32,,,,0.9,0.7,0.6*21

$GNGSA,A,2,68,69,70,71,73,79,80,,,,,,0.9,0.7,0.6*27

$GPGSV,4,1,13,01,18,281,21,03,17,316,19,04,16,250,27,08,,,15*4A

$GPGSV,4,2,13,11,02,262,21,12,13,036,18,14,57,073,16,22,29,161,15*7A

$GPGSV,4,1,13,01,18,281,21,03,17,316,19,04,16,250,27,08,,,15*4A

$GPGSV,4,2,13,11,02,262,21,12,13,036,18,14,57,073,16,22,29,161,15*7A

$GPGSV,4,3,13,25,40,067,17,31,74,254,21,32,59,288,21,46,,,29*4C

$GPGSV,4,4,13,18,,,*72

$GLGSV,3,1,09,70,61,326,15,73,15,217,25,80,66,223,14,79,47,032,16*6B

$GLGSV,3,2,09,69,56,135,19,87,02,352,20,71,10,322,18,68,05,139,15*6C

$GLGSV,3,3,09,78,02,035,*57

$GPGGA,171049.0,4232.045901,N,08306.984330,W,1,08,0.7,187.0,M,-34.0,M,,*69

$GNGNS,171049.0,4232.045901,N,08306.984330,W,AA,15,0.7,187.0,-34.0,,*51

$GPVTG,268.0,T,268.0,M,22.3,N,41.2,K,A*27

$GPRMC,171049.0,A,4232.045901,N,08306.984330,W,22.3,268.0,290315,0.0,E,A*28

$GPGSA,A,2,01,03,04,12,22,25,31,32,,,,,0.9,0.7,0.7*3B

$GNGSA,A,2,01,03,04,12,22,25,31,32,,,,,0.9,0.7,0.7*25

$GNGSA,A,2,68,69,70,71,73,79,80,,,,,,0.9,0.7,0.7*26

$GPGSV,4,3,13,25,40,067,17,31,74,254,21,32,59,288,21,46,,,29*4C

$GPGSV,4,4,13,18,,,*72

$GLGSV,3,1,09,70,61,326,15,73,15,217,25,80,66,223,14,79,47,032,16*6B

$GLGSV,3,2,09,69,56,135,19,87,02,352,20,71,10,322,18,68,05,139,15*6C

$GLGSV,3,3,09,78,02,035,*57

$GPGGA,171049.0,4232.045901,N,08306.984330,W,1,08,0.7,187.0,M,-34.0,M,,*69

$GNGNS,171049.0,4232.045901,N,08306.984330,W,AA,15,0.7,187.0,-34.0,,*51

$GPVTG,268.0,T,268.0,M,22.3,N,41.2,K,A*27

$GPRMC,171049.0,A,4232.045901,N,08306.984330,W,22.3,268.0,290315,0.0,E,A*28

$GPGSA,A,2,01,03,04,12,22,25,31,32,,,,,0.9,0.7,0.7*3B

$GNGSA,A,2,01,03,04,12,22,25,31,32,,,,,0.9,0.7,0.7*25

$GNGSA,A,2,68,69,70,71,73,79,80,,,,,,0.9,0.7,0.7*26

$GPGSV,4,1,13,01,18,281,20,03,17,316,21,04,16,250,28,08,,,14*4E

$GPGSV,4,1,13,01,18,281,20,03,17,316,21,04,16,250,28,08,,,14*4E

$GPGSV,4,2,13,11,02,262,24,12,13,036,12,14,57,073,12,22,29,161,22*75

$GPGSV,4,3,13,25,40,067,15,31,74,254,23,32,59,288,20,46,,,29*4D

$GPGSV,4,4,13,18,,,*72

$GPGSV,4,2,13,11,02,262,24,12,13,036,12,14,57,073,12,22,29,161,22*75

$GPGSV,4,3,13,25,40,067,15,31,74,254,23,32,59,288,20,46,,,29*4D

$GPGSV,4,4,13,18,,,*72

$GLGSV,3,1,09,70,61,326,15,73,15,217,24,80,66,223,14,79,47,032,19*65

$GLGSV,3,2,09,69,56,135,23,87,02,352,20,71,10,322,21,68,05,139,15*6F

$GLGSV,3,3,09,78,02,035,*57

$GPGGA,171050.0,4232.041616,N,08306.988671,W,1,09,0.7,187.0,M,-34.0,M,,*61

$GNGNS,171050.0,4232.041616,N,08306.988671,W,AA,16,0.7,187.0,-34.0,,*5B

$GPVTG,267.5,T,267.5,M,19.5,N,36.2,K,A*29

$GPRMC,171050.0,A,4232.041616,N,08306.988671,W,19.5,267.5,290315,0.0,E,A*25

$GPGSA,A,2,01,03,04,12,14,22,25,31,32,,,,0.9,0.7,0.6*3F

$GNGSA,A,2,01,03,04,12,14,22,25,31,32,,,,0.9,0.7,0.6*21

$GNGSA,A,2,68,69,70,71,73,79,80,,,,,,0.9,0.7,0.6*27

$GLGSV,3,1,09,70,61,326,15,73,15,217,24,80,66,223,14,79,47,032,19*65

$GLGSV,3,2,09,69,56,135,23,87,02,352,20,71,10,322,21,68,05,139,15*6F

$GLGSV,3,3,09,78,02,035,*57

$GPGGA,171050.0,4232.041616,N,08306.988671,W,1,09,0.7,187.0,M,-34.0,M,,*61

$GNGNS,171050.0,4232.041616,N,08306.988671,W,AA,16,0.7,187.0,-34.0,,*5B

$GPVTG,267.5,T,267.5,M,19.5,N,36.2,K,A*29

$GPRMC,171050.0,A,4232.041616,N,08306.988671,W,19.5,267.5,290315,0.0,E,A*25

$GPGSA,A,2,01,03,04,12,14,22,25,31,32,,,,0.9,0.7,0.6*3F

$GNGSA,A,2,01,03,04,12,14,22,25,31,32,,,,0.9,0.7,0.6*21

$GNGSA,A,2,68,69,70,71,73,79,80,,,,,,0.9,0.7,0.6*27

$GPGSV,4,1,13,01,18,281,21,03,17,316,22,04,16,250,28,08,,,20*4B

$GPGSV,4,2,13,11,02,262,21,12,13,036,19,14,57,073,12,22,29,161,21*78

$GPGSV,4,3,13,25,40,067,20,31,74,254,24,32,59,288,22,46,,,29*4E

$GPGSV,4,4,13,18,,,*72

$GPGSV,4,1,13,01,18,281,21,03,17,316,22,04,16,250,28,08,,,20*4B

$GPGSV,4,2,13,11,02,262,21,12,13,036,19,14,57,073,12,22,29,161,21*78

$GPGSV,4,3,13,25,40,067,20,31,74,254,24,32,59,288,22,46,,,29*4E

$GPGSV,4,4,13,18,,,*72

$GLGSV,3,1,09,70,61,326,16,73,15,217,24,80,66,223,14,79,47,032,18*67

$GLGSV,3,2,09,69,56,135,24,87,02,352,20,71,10,322,23,68,05,139,15*6A

$GLGSV,3,3,09,78,02,035,*57

$GPGGA,171051.0,4232.042210,N,08307.000741,W,1,09,0.7,185.4,M,-34.0,M,,*6D

$GNGNS,171051.0,4232.042210,N,08307.000741,W,AA,16,0.7,185.4,-34.0,,*57

$GLGSV,3,1,09,70,61,326,16,73,15,217,24,80,66,223,14,79,47,032,18*67

$GLGSV,3,2,09,69,56,135,24,87,02,352,20,71,10,322,23,68,05,139,15*6A

$GLGSV,3,3,09,78,02,035,*57

$GPGGA,171051.0,4232.042210,N,08307.000741,W,1,09,0.7,185.4,M,-34.0,M,,*6D

$GNGNS,171051.0,4232.042210,N,08307.000741,W,AA,16,0.7,185.4,-34.0,,*57

$GPVTG,267.3,T,267.3,M,22.8,N,42.2,K,A*2F

$GPRMC,171051.0,A,4232.042210,N,08307.000741,W,22.8,267.3,290315,0.0,E,A*2C

$GPVTG,267.3,T,267.3,M,22.8,N,42.2,K,A*2F

$GPRMC,171051.0,A,4232.042210,N,08307.000741,W,22.8,267.3,290315,0.0,E,A*2C

$GPGSA,A,2,01,03,04,12,14,22,25,31,32,,,,0.9,0.7,0.6*3F

$GNGSA,A,2,01,03,04,12,14,22,25,31,32,,,,0.9,0.7,0.6*21

$GPGSA,A,2,01,03,04,12,14,22,25,31,32,,,,0.9,0.7,0.6*3F

$GNGSA,A,2,01,03,04,12,14,22,25,31,32,,,,0.9,0.7,0.6*21

$GNGSA,A,2,68,69,70,71,73,79,80,,,,,,0.9,0.7,0.6*27

$GNGSA,A,2,68,69,70,71,73,79,80,,,,,,0.9,0.7,0.6*27

$GPGSV,4,1,13,01,18,281,19,03,17,316,21,04,16,250,27,08,,,17*48

$GPGSV,4,1,13,01,18,281,19,03,17,316,21,04,16,250,27,08,,,17*48

$GPGSV,4,2,13,11,02,262,20,12,13,036,19,14,57,073,12,22,29,161,19*72

$GPGSV,4,3,13,25,40,067,21,31,74,254,22,32,59,288,23,46,,,29*48

$GPGSV,4,4,13,18,,,*72

$GLGSV,3,1,09,70,61,326,16,73,15,217,24,80,66,223,16,79,47,032,18*65

$GLGSV,3,2,09,69,56,135,24,87,02,352,20,71,10,322,24,68,05,139,15*6D

$GLGSV,3,3,09,78,02,035,*57

$GPGGA,171052.0,4232.040108,N,08307.013501,W,1,09,0.7,187.1,M,-34.0,M,,*65

$GNGNS,171052.0,4232.040108,N,08307.013501,W,AA,15,0.7,187.1,-34.0,,*5C

$GPVTG,266.7,T,266.7,M,25.5,N,47.2,K,A*20

$GPRMC,171052.0,A,4232.040108,N,08307.013501,W,25.5,266.7,290315,0.0,E,A*2C

$GPGSA,A,2,01,03,04,12,14,22,25,31,32,,,,1.0,0.7,0.7*36

$GNGSA,A,2,01,03,04,12,14,22,25,31,32,,,,1.0,0.7,0.7*28

$GNGSA,A,2,69,70,71,73,79,80,,,,,,,1.0,0.7,0.7*20

$GPGSV,4,2,13,11,02,262,20,12,13,036,19,14,57,073,12,22,29,161,19*72

$GPGSV,4,3,13,25,40,067,21,31,74,254,22,32,59,288,23,46,,,29*48

$GPGSV,4,4,13,18,,,*72

$GLGSV,3,1,09,70,61,326,16,73,15,217,24,80,66,223,16,79,47,032,18*65

$GLGSV,3,2,09,69,56,135,24,87,02,352,20,71,10,322,24,68,05,139,15*6D

$GLGSV,3,3,09,78,02,035,*57

$GPGGA,171052.0,4232.040108,N,08307.013501,W,1,09,0.7,187.1,M,-34.0,M,,*65

$GNGNS,171052.0,4232.040108,N,08307.013501,W,AA,15,0.7,187.1,-34.0,,*5C

$GPVTG,266.7,T,266.7,M,25.5,N,47.2,K,A*20

$GPRMC,171052.0,A,4232.040108,N,08307.013501,W,25.5,266.7,290315,0.0,E,A*2C

$GPGSA,A,2,01,03,04,12,14,22,25,31,32,,,,1.0,0.7,0.7*36

$GNGSA,A,2,01,03,04,12,14,22,25,31,32,,,,1.0,0.7,0.7*28

$GNGSA,A,2,69,70,71,73,79,80,,,,,,,1.0,0.7,0.7*20

$GPGSV,4,1,13,01,18,281,21,03,17,316,21,04,16,250,27,08,,,22*45

$GPGSV,4,2,13,11,02,262,22,12,13,036,15,14,57,073,12,22,29,161,20*76

$GPGSV,4,1,13,01,18,281,21,03,17,316,21,04,16,250,27,08,,,22*45

$GPGSV,4,2,13,11,02,262,22,12,13,036,15,14,57,073,12,22,29,161,20*76

$GPGSV,4,3,13,25,40,067,20,31,74,254,22,32,59,288,25,46,,,29*4F

$GPGSV,4,4,13,18,,,*72

$GPGSV,4,3,13,25,40,067,20,31,74,254,22,32,59,288,25,46,,,29*4F

$GPGSV,4,4,13,18,,,*72

$GLGSV,3,1,09,70,61,326,15,73,15,217,27,80,66,223,20,79,47,032,20*6B

$GLGSV,3,1,09,70,61,326,15,73,15,217,27,80,66,223,20,79,47,032,20*6B

$GLGSV,3,2,09,69,56,135,24,87,02,352,20,71,10,322,24,68,05,139,15*6D

$GLGSV,3,3,09,78,02,035,*57

$GPGGA,171053.0,4232.040859,N,08307.030726,W,1,09,0.7,188.0,M,-34.0,M,,*61

$GNGNS,171053.0,4232.040859,N,08307.030726,W,AA,15,0.7,188.0,-34.0,,*58

$GPVTG,266.2,T,266.2,M,30.2,N,56.0,K,A*21

$GPRMC,171053.0,A,4232.040859,N,08307.030726,W,30.2,266.2,290315,0.0,E,A*20

$GPGSA,A,2,01,03,04,12,14,22,25,31,32,,,,1.0,0.7,0.7*36

$GNGSA,A,2,01,03,04,12,14,22,25,31,32,,,,1.0,0.7,0.7*28

$GNGSA,A,2,69,70,71,73,79,80,,,,,,,1.0,0.7,0.7*20

$GLGSV,3,2,09,69,56,135,24,87,02,352,20,71,10,322,24,68,05,139,15*6D

$GLGSV,3,3,09,78,02,035,*57

$GPGGA,171053.0,4232.040859,N,08307.030726,W,1,09,0.7,188.0,M,-34.0,M,,*61

$GNGNS,171053.0,4232.040859,N,08307.030726,W,AA,15,0.7,188.0,-34.0,,*58

$GPVTG,266.2,T,266.2,M,30.2,N,56.0,K,A*21

$GPRMC,171053.0,A,4232.040859,N,08307.030726,W,30.2,266.2,290315,0.0,E,A*20

$GPGSA,A,2,01,03,04,12,14,22,25,31,32,,,,1.0,0.7,0.7*36

$GNGSA,A,2,01,03,04,12,14,22,25,31,32,,,,1.0,0.7,0.7*28

$GNGSA,A,2,69,70,71,73,79,80,,,,,,,1.0,0.7,0.7*20

$GPGSV,4,1,13,01,18,281,21,03,17,316,21,04,16,250,28,08,,,19*42

$GPGSV,4,1,13,01,18,281,21,03,17,316,21,04,16,250,28,08,,,19*42

$GPGSV,4,2,13,11,02,262,24,12,13,036,15,14,57,073,12,22,29,161,18*7B

$GPGSV,4,3,13,25,40,067,19,31,74,254,22,32,59,288,25,46,,,29*45

$GPGSV,4,4,13,18,,,*72

$GLGSV,3,1,09,70,61,326,15,73,15,217,27,80,66,223,18,79,47,032,19*6A

$GLGSV,3,2,09,69,56,135,24,87,02,352,20,71,10,322,23,68,05,139,15*6A

$GLGSV,3,3,09,78,02,035,*57

$GPGGA,171054.0,4232.042710,N,08307.033671,W,1,09,0.7,187.4,M,-34.0,M,,*6D

$GNGNS,171054.0,4232.042710,N,08307.033671,W,AA,15,0.7,187.4,-34.0,,*54

$GPVTG,266.5,T,266.5,M,23.6,N,43.6,K,A*25

$GPRMC,171054.0,A,4232.042710,N,08307.033671,W,23.6,266.5,290315,0.0,E,A*26

$GPGSA,A,2,01,03,04,12,14,22,25,31,32,,,,1.0,0.7,0.7*36

$GNGSA,A,2,01,03,04,12,14,22,25,31,32,,,,1.0,0.7,0.7*28

$GNGSA,A,2,69,70,71,73,79,80,,,,,,,1.0,0.7,0.7*20

$GPGSV,4,2,13,11,02,262,24,12,13,036,15,14,57,073,12,22,29,161,18*7B

$GPGSV,4,3,13,25,40,067,19,31,74,254,22,32,59,288,25,46,,,29*45

$GPGSV,4,4,13,18,,,*72

$GLGSV,3,1,09,70,61,326,15,73,15,217,27,80,66,223,18,79,47,032,19*6A

$GLGSV,3,2,09,69,56,135,24,87,02,352,20,71,10,322,23,68,05,139,15*6A

$GLGSV,3,3,09,78,02,035,*57

$GPGGA,171054.0,4232.042710,N,08307.033671,W,1,09,0.7,187.4,M,-34.0,M,,*6D

$GNGNS,171054.0,4232.042710,N,08307.033671,W,AA,15,0.7,187.4,-34.0,,*54

$GPVTG,266.5,T,266.5,M,23.6,N,43.6,K,A*25

$GPRMC,171054.0,A,4232.042710,N,08307.033671,W,23.6,266.5,290315,0.0,E,A*26

$GPGSA,A,2,01,03,04,12,14,22,25,31,32,,,,1.0,0.7,0.7*36

$GNGSA,A,2,01,03,04,12,14,22,25,31,32,,,,1.0,0.7,0.7*28

$GNGSA,A,2,69,70,71,73,79,80,,,,,,,1.0,0.7,0.7*20

$GPGSV,4,1,13,01,18,281,21,03,17,316,22,04,16,250,28,08,,,21*4A

$GPGSV,4,1,13,01,18,281,21,03,17,316,22,04,16,250,28,08,,,21*4A

$GPGSV,4,2,13,11,02,262,24,12,13,036,16,14,57,073,12,22,29,161,20*73

$GPGSV,4,3,13,25,40,067,20,31,74,254,23,32,59,288,26,46,,,29*4D

$GPGSV,4,4,13,18,,,*72

$GLGSV,3,1,09,70,61,326,15,73,15,217,27,80,66,223,19,79,47,032,19*6B

$GPGSV,4,2,13,11,02,262,24,12,13,036,16,14,57,073,12,22,29,161,20*73

$GPGSV,4,3,13,25,40,067,20,31,74,254,23,32,59,288,26,46,,,29*4D

$GPGSV,4,4,13,18,,,*72

$GLGSV,3,1,09,70,61,326,15,73,15,217,27,80,66,223,19,79,47,032,19*6B

$GLGSV,3,2,09,69,56,135,24,87,02,352,20,71,10,322,19,68,05,139,15*63

$GLGSV,3,3,09,78,02,035,*57

$GPGGA,171055.0,4232.042911,N,08307.046717,W,1,09,0.7,188.1,M,-34.0,M,,*6A

$GNGNS,171055.0,4232.042911,N,08307.046717,W,AA,15,0.7,188.1,-34.0,,*53

$GPVTG,266.5,T,266.5,M,24.6,N,45.5,K,A*27

$GLGSV,3,2,09,69,56,135,24,87,02,352,20,71,10,322,19,68,05,139,15*63

$GLGSV,3,3,09,78,02,035,*57

$GPGGA,171055.0,4232.042911,N,08307.046717,W,1,09,0.7,188.1,M,-34.0,M,,*6A

$GNGNS,171055.0,4232.042911,N,08307.046717,W,AA,15,0.7,188.1,-34.0,,*53

$GPVTG,266.5,T,266.5,M,24.6,N,45.5,K,A*27

$GPRMC,171055.0,A,4232.042911,N,08307.046717,W,24.6,266.5,290315,0.0,E,A*2C

$GPGSA,A,2,01,03,04,12,14,22,25,31,32,,,,1.0,0.7,0.7*36

$GNGSA,A,2,01,03,04,12,14,22,25,31,32,,,,1.0,0.7,0.7*28

$GNGSA,A,2,69,70,71,73,79,80,,,,,,,1.0,0.7,0.7*20

$GPRMC,171055.0,A,4232.042911,N,08307.046717,W,24.6,266.5,290315,0.0,E,A*2C

$GPGSA,A,2,01,03,04,12,14,22,25,31,32,,,,1.0,0.7,0.7*36

$GNGSA,A,2,01,03,04,12,14,22,25,31,32,,,,1.0,0.7,0.7*28

$GNGSA,A,2,69,70,71,73,79,80,,,,,,,1.0,0.7,0.7*20

$GPGSV,4,1,13,01,18,281,21,03,17,316,21,04,16,250,27,08,,,21*46

$GPGSV,4,2,13,11,02,262,25,12,13,036,16,14,57,073,12,22,29,161,19*78

$GPGSV,4,3,13,25,40,067,20,31,74,254,22,32,59,288,25,46,,,29*4F

$GPGSV,4,1,13,01,18,281,21,03,17,316,21,04,16,250,27,08,,,21*46

$GPGSV,4,2,13,11,02,262,25,12,13,036,16,14,57,073,12,22,29,161,19*78

$GPGSV,4,3,13,25,40,067,20,31,74,254,22,32,59,288,25,46,,,29*4F

$GPGSV,4,4,13,18,,,*72

$GLGSV,3,1,09,70,61,326,16,73,15,217,26,80,66,223,19,79,47,032,17*67

$GLGSV,3,2,09,69,56,135,24,87,02,352,20,71,10,322,22,68,05,139,10*6E

$GLGSV,3,3,09,78,02,035,*57

$GPGGA,171056.0,4232.043091,N,08307.054136,W,1,09,0.7,188.6,M,-34.0,M,,*68

$GNGNS,171056.0,4232.043091,N,08307.054136,W,AA,16,0.7,188.6,-34.0,,*52

$GPVTG,266.4,T,266.4,M,22.5,N,41.7,K,A*24

$GPGSV,4,4,13,18,,,*72

$GLGSV,3,1,09,70,61,326,16,73,15,217,26,80,66,223,19,79,47,032,17*67

$GLGSV,3,2,09,69,56,135,24,87,02,352,20,71,10,322,22,68,05,139,10*6E

$GLGSV,3,3,09,78,02,035,*57

$GPGGA,171056.0,4232.043091,N,08307.054136,W,1,09,0.7,188.6,M,-34.0,M,,*68

$GNGNS,171056.0,4232.043091,N,08307.054136,W,AA,16,0.7,188.6,-34.0,,*52

$GPVTG,266.4,T,266.4,M,22.5,N,41.7,K,A*24

$GPRMC,171056.0,A,4232.043091,N,08307.054136,W,22.5,266.4,290315,0.0,E,A*2D

$GPGSA,A,2,01,03,04,12,14,22,25,31,32,,,,0.9,0.7,0.6*3F

$GPRMC,171056.0,A,4232.043091,N,08307.054136,W,22.5,266.4,290315,0.0,E,A*2D

$GPGSA,A,2,01,03,04,12,14,22,25,31,32,,,,0.9,0.7,0.6*3F

$GNGSA,A,2,01,03,04,12,14,22,25,31,32,,,,0.9,0.7,0.6*21

$GNGSA,A,2,01,03,04,12,14,22,25,31,32,,,,0.9,0.7,0.6*21

$GNGSA,A,2,68,69,70,71,73,79,80,,,,,,0.9,0.7,0.6*27

$GNGSA,A,2,68,69,70,71,73,79,80,,,,,,0.9,0.7,0.6*27

$GPGSV,4,1,13,01,18,281,20,03,17,316,21,04,16,250,28,08,,,21*48

$GPGSV,4,2,13,11,02,262,25,12,13,036,16,14,57,073,12,22,29,161,22*70

$GPGSV,4,3,13,25,40,067,20,31,74,254,24,32,59,288,26,46,,,29*4A

$GPGSV,4,4,13,18,,,*72

$GPGSV,4,1,13,01,18,281,20,03,17,316,21,04,16,250,28,08,,,21*48

$GPGSV,4,2,13,11,02,262,25,12,13,036,16,14,57,073,12,22,29,161,22*70

$GPGSV,4,3,13,25,40,067,20,31,74,254,24,32,59,288,26,46,,,29*4A

$GPGSV,4,4,13,18,,,*72

$GLGSV,3,1,09,70,61,326,16,73,15,217,26,80,66,223,20,79,47,032,19*63

$GLGSV,3,2,09,69,56,135,24,87,02,352,20,71,10,322,24,68,05,139,10*68

$GLGSV,3,3,09,78,02,035,*57

$GPGGA,171057.0,4232.042689,N,08307.058802,W,1,08,0.7,188.4,M,-34.0,M,,*66

$GNGNS,171057.0,4232.042689,N,08307.058802,W,AA,15,0.7,188.4,-34.0,,*5E

$GPVTG,266.2,T,266.2,M,19.2,N,35.6,K,A*29

$GLGSV,3,1,09,70,61,326,16,73,15,217,26,80,66,223,20,79,47,032,19*63

$GLGSV,3,2,09,69,56,135,24,87,02,352,20,71,10,322,24,68,05,139,10*68

$GLGSV,3,3,09,78,02,035,*57

$GPGGA,171057.0,4232.042689,N,08307.058802,W,1,08,0.7,188.4,M,-34.0,M,,*66

$GNGNS,171057.0,4232.042689,N,08307.058802,W,AA,15,0.7,188.4,-34.0,,*5E

$GPVTG,266.2,T,266.2,M,19.2,N,35.6,K,A*29

$GPRMC,171057.0,A,4232.042689,N,08307.058802,W,19.2,266.2,290315,0.0,E,A*29

$GPRMC,171057.0,A,4232.042689,N,08307.058802,W,19.2,266.2,290315,0.0,E,A*29

$GPGSA,A,2,01,03,04,12,22,25,31,32,,,,,0.9,0.7,0.7*3B

$GNGSA,A,2,01,03,04,12,22,25,31,32,,,,,0.9,0.7,0.7*25

$GNGSA,A,2,68,69,70,71,73,79,80,,,,,,0.9,0.7,0.7*26

$GPGSA,A,2,01,03,04,12,22,25,31,32,,,,,0.9,0.7,0.7*3B

$GNGSA,A,2,01,03,04,12,22,25,31,32,,,,,0.9,0.7,0.7*25

