$GPGGA,171546.0,4228.594269,N,08306.957771,W,1,09,0.7,186.1,M,-34.0,M,,*6A

$GNGNS,171546.0,4228.594269,N,08306.957771,W,AA,15,0.7,186.1,-34.0,,*53

$GPVTG,255.9,T,255.9,M,44.7,N,82.8,K,A*26

$GPRMC,171546.0,A,4228.594269,N,08306.957771,W,44.7,255.9,290315,0.0,E,A*29

$GPGSA,A,2,01,03,04,12,14,22,25,31,32,,,,1.0,0.7,0.7*36

$GNGSA,A,2,01,03,04,12,14,22,25,31,32,,,,1.0,0.7,0.7*28

$GNGSA,A,2,69,70,71,73,79,80,,,,,,,1.0,0.7,0.7*20

$GLGSV,3,1,09,70,64,326,23,73,17,219,27,80,69,229,20,79,44,032,22*63

$GLGSV,3,2,09,69,52,139,28,87,02,350,16,71,13,322,23,68,02,140,18*6E

$GLGSV,3,3,09,88,,,*6C

$GPGGA,171546.0,4228.594269,N,08306.957771,W,1,09,0.7,186.1,M,-34.0,M,,*6A

$GNGNS,171546.0,4228.594269,N,08306.957771,W,AA,15,0.7,186.1,-34.0,,*53

$GPVTG,255.9,T,255.9,M,44.7,N,82.8,K,A*26

$GPRMC,171546.0,A,4228.594269,N,08306.957771,W,44.7,255.9,290315,0.0,E,A*29

$GPGSA,A,2,01,03,04,12,14,22,25,31,32,,,,1.0,0.7,0.7*36

$GNGSA,A,2,01,03,04,12,14,22,25,31,32,,,,1.0,0.7,0.7*28

$GNGSA,A,2,69,70,71,73,79,80,,,,,,,1.0,0.7,0.7*20

$GPGSV,3,1,11,01,17,278,14,03,19,314,20,04,15,248,25,08,,,21*49

$GPGSV,3,2,11,11,00,260,17,12,11,035,17,14,55,077,22,22,26,161,27*7B

$GPGSV,3,3,11,25,39,063,18,31,76,262,25,32,61,282,27*41

$GLGSV,3,1,09,70,64,326,24,73,17,219,29,80,69,229,20,79,44,032,24*6C

$GLGSV,3,2,09,69,52,139,28,87,02,350,16,71,13,322,23,68,02,140,17*61

$GLGSV,3,3,09,88,,,*6C

$GPGGA,171547.0,4228.591900,N,08306.974263,W,1,09,0.7,186.1,M,-34.0,M,,*6D

$GNGNS,171547.0,4228.591900,N,08306.974263,W,AA,15,0.7,186.1,-34.0,,*54

$GPVTG,257.2,T,257.2,M,45.2,N,83.8,K,A*23

$GPRMC,171547.0,A,4228.591900,N,08306.974263,W,45.2,257.2,290315,0.0,E,A*23

$GPGSA,A,2,01,03,04,12,14,22,25,31,32,,,,1.0,0.7,0.7*36

$GNGSA,A,2,01,03,04,12,14,22,25,31,32,,,,1.0,0.7,0.7*28

$GNGSA,A,2,69,70,71,73,79,80,,,,,,,1.0,0.7,0.7*20

$GPGSV,3,1,11,01,17,278,14,03,19,314,20,04,15,248,25,08,,,21*49

$GPGSV,3,2,11,11,00,260,17,12,11,035,17,14,55,077,22,22,26,161,27*7B

$GPGSV,3,3,11,25,39,063,18,31,76,262,25,32,61,282,27*41

$GLGSV,3,1,09,70,64,326,24,73,17,219,29,80,69,229,20,79,44,032,24*6C

$GLGSV,3,2,09,69,52,139,28,87,02,350,16,71,13,322,23,68,02,140,17*61

$GLGSV,3,3,09,88,,,*6C

$GPGGA,171547.0,4228.591900,N,08306.974263,W,1,09,0.7,186.1,M,-34.0,M,,*6D

$GNGNS,171547.0,4228.591900,N,08306.974263,W,AA,15,0.7,186.1,-34.0,,*54

$GPVTG,257.2,T,257.2,M,45.2,N,83.8,K,A*23

$GPRMC,171547.0,A,4228.591900,N,08306.974263,W,45.2,257.2,290315,0.0,E,A*23

$GPGSA,A,2,01,03,04,12,14,22,25,31,32,,,,1.0,0.7,0.7*36

$GNGSA,A,2,01,03,04,12,14,22,25,31,32,,,,1.0,0.7,0.7*28

$GNGSA,A,2,69,70,71,73,79,80,,,,,,,1.0,0.7,0.7*20

$GPGSV,3,1,11,01,17,278,18,03,19,314,20,04,15,248,26,08,,,21*46

$GPGSV,3,2,11,11,00,260,17,12,11,035,17,14,55,077,22,22,26,161,28*74

$GPGSV,3,3,11,25,39,063,23,31,76,262,25,32,61,282,27*49

$GPGSV,3,1,11,01,17,278,18,03,19,314,20,04,15,248,26,08,,,21*46

$GPGSV,3,2,11,11,00,260,17,12,11,035,17,14,55,077,22,22,26,161,28*74

$GPGSV,3,3,11,25,39,063,23,31,76,262,25,32,61,282,27*49

$GLGSV,3,1,09,70,64,326,21,73,17,219,30,80,69,229,19,79,44,032,21*6E

$GLGSV,3,2,09,69,52,139,29,71,13,322,17,68,02,140,17,88,,,*5B

$GLGSV,3,3,09,,02,350,*58

$GLGSV,3,1,09,70,64,326,21,73,17,219,30,80,69,229,19,79,44,032,21*6E

$GLGSV,3,2,09,69,52,139,29,71,13,322,17,68,02,140,17,88,,,*5B

$GLGSV,3,3,09,,02,350,*58

$GPGGA,171548.0,4228.588904,N,08306.992009,W,1,09,0.7,185.3,M,-34.0,M,,*69

$GNGNS,171548.0,4228.588904,N,08306.992009,W,AA,15,0.7,185.3,-34.0,,*50

$GPVTG,258.9,T,258.9,M,46.6,N,86.2,K,A*2B

$GPRMC,171548.0,A,4228.588904,N,08306.992009,W,46.6,258.9,290315,0.0,E,A*25

$GPGSA,A,2,01,03,04,12,14,22,25,31,32,,,,1.0,0.7,0.7*36

$GNGSA,A,2,01,03,04,12,14,22,25,31,32,,,,1.0,0.7,0.7*28

$GNGSA,A,2,69,70,71,73,79,80,,,,,,,1.0,0.7,0.7*20

$GPGGA,171548.0,4228.588904,N,08306.992009,W,1,09,0.7,185.3,M,-34.0,M,,*69

$GNGNS,171548.0,4228.588904,N,08306.992009,W,AA,15,0.7,185.3,-34.0,,*50

$GPVTG,258.9,T,258.9,M,46.6,N,86.2,K,A*2B

$GPRMC,171548.0,A,4228.588904,N,08306.992009,W,46.6,258.9,290315,0.0,E,A*25

$GPGSA,A,2,01,03,04,12,14,22,25,31,32,,,,1.0,0.7,0.7*36

$GNGSA,A,2,01,03,04,12,14,22,25,31,32,,,,1.0,0.7,0.7*28

$GNGSA,A,2,69,70,71,73,79,80,,,,,,,1.0,0.7,0.7*20

$GPGSV,3,1,11,01,17,278,22,03,19,314,20,04,15,248,25,08,,,21*4C

$GPGSV,3,2,11,11,00,260,17,12,11,035,17,14,55,077,22,22,26,161,29*75

$GPGSV,3,1,11,01,17,278,22,03,19,314,20,04,15,248,25,08,,,21*4C

$GPGSV,3,2,11,11,00,260,17,12,11,035,17,14,55,077,22,22,26,161,29*75

$GPGSV,3,3,11,25,39,063,18,31,76,262,26,32,61,282,28*4D

$GPGSV,3,3,11,25,39,063,18,31,76,262,26,32,61,282,28*4D

$GLGSV,3,1,09,70,64,326,21,73,17,219,30,80,69,229,22,79,44,032,21*66

$GLGSV,3,2,09,69,52,139,29,71,13,322,19,68,02,140,17,88,,,*55

$GLGSV,3,3,09,87,02,350,*57

$GPGGA,171549.0,4228.586110,N,08307.010141,W,1,09,0.7,184.4,M,-34.0,M,,*62

$GNGNS,171549.0,4228.586110,N,08307.010141,W,AA,15,0.7,184.4,-34.0,,*5B

$GPVTG,260.2,T,260.2,M,47.6,N,88.2,K,A*24

$GPRMC,171549.0,A,4228.586110,N,08307.010141,W,47.6,260.2,290315,0.0,E,A*29

$GPGSA,A,2,01,03,04,12,14,22,25,31,32,,,,1.0,0.7,0.7*36

$GNGSA,A,2,01,03,04,12,14,22,25,31,32,,,,1.0,0.7,0.7*28

$GNGSA,A,2,69,70,71,73,79,80,,,,,,,1.0,0.7,0.7*20

$GLGSV,3,1,09,70,64,326,21,73,17,219,30,80,69,229,22,79,44,032,21*66

$GLGSV,3,2,09,69,52,139,29,71,13,322,19,68,02,140,17,88,,,*55

$GLGSV,3,3,09,87,02,350,*57

$GPGGA,171549.0,4228.586110,N,08307.010141,W,1,09,0.7,184.4,M,-34.0,M,,*62

$GNGNS,171549.0,4228.586110,N,08307.010141,W,AA,15,0.7,184.4,-34.0,,*5B

$GPVTG,260.2,T,260.2,M,47.6,N,88.2,K,A*24

$GPRMC,171549.0,A,4228.586110,N,08307.010141,W,47.6,260.2,290315,0.0,E,A*29

$GPGSA,A,2,01,03,04,12,14,22,25,31,32,,,,1.0,0.7,0.7*36

$GNGSA,A,2,01,03,04,12,14,22,25,31,32,,,,1.0,0.7,0.7*28

$GNGSA,A,2,69,70,71,73,79,80,,,,,,,1.0,0.7,0.7*20

$GPGSV,3,1,11,01,17,278,20,03,19,314,20,04,15,248,25,08,,,21*4E

$GPGSV,3,1,11,01,17,278,20,03,19,314,20,04,15,248,25,08,,,21*4E

$GPGSV,3,2,11,11,00,260,17,12,11,035,17,14,55,077,20,22,26,161,28*76

$GPGSV,3,2,11,11,00,260,17,12,11,035,17,14,55,077,20,22,26,161,28*76

$GPGSV,3,3,11,25,39,063,18,31,76,262,26,32,61,282,26*43

$GPGSV,3,3,11,25,39,063,18,31,76,262,26,32,61,282,26*43

$GLGSV,3,1,09,70,64,326,21,73,17,219,30,80,69,229,19,79,44,032,21*6E

$GLGSV,3,2,09,69,52,139,29,71,13,322,19,68,02,140,17,88,,,*55

$GLGSV,3,3,09,87,02,350,*57

$GPGGA,171550.0,4228.583329,N,08307.028714,W,1,08,0.8,184.2,M,-34.0,M,,*62

$GNGNS,171550.0,4228.583329,N,08307.028714,W,AA,14,0.8,184.2,-34.0,,*5B

$GPVTG,260.8,T,260.8,M,48.6,N,90.0,K,A*20

$GPRMC,171550.0,A,4228.583329,N,08307.028714,W,48.6,260.8,290315,0.0,E,A*24

$GLGSV,3,1,09,70,64,326,21,73,17,219,30,80,69,229,19,79,44,032,21*6E

$GLGSV,3,2,09,69,52,139,29,71,13,322,19,68,02,140,17,88,,,*55

$GLGSV,3,3,09,87,02,350,*57

$GPGGA,171550.0,4228.583329,N,08307.028714,W,1,08,0.8,184.2,M,-34.0,M,,*62

$GNGNS,171550.0,4228.583329,N,08307.028714,W,AA,14,0.8,184.2,-34.0,,*5B

$GPVTG,260.8,T,260.8,M,48.6,N,90.0,K,A*20

$GPRMC,171550.0,A,4228.583329,N,08307.028714,W,48.6,260.8,290315,0.0,E,A*24

$GPGSA,A,2,01,03,04,14,22,25,31,32,,,,,1.1,0.8,0.8*34

$GPGSA,A,2,01,03,04,14,22,25,31,32,,,,,1.1,0.8,0.8*34

$GNGSA,A,2,01,03,04,14,22,25,31,32,,,,,1.1,0.8,0.8*2A

$GNGSA,A,2,01,03,04,14,22,25,31,32,,,,,1.1,0.8,0.8*2A

$GNGSA,A,2,69,70,71,73,79,80,,,,,,,1.1,0.8,0.8*21

$GNGSA,A,2,69,70,71,73,79,80,,,,,,,1.1,0.8,0.8*21

$GPGSV,3,1,11,01,17,278,19,03,19,314,13,04,15,248,25,08,,,21*44

$GPGSV,3,2,11,11,00,260,17,12,11,035,17,14,55,077,21,22,26,161,27*78

$GPGSV,3,3,11,25,39,063,18,31,76,262,25,32,61,282,25*43

$GLGSV,3,1,09,70,64,326,20,73,17,219,29,80,69,229,19,79,44,032,14*61

$GLGSV,3,2,09,69,52,139,28,71,13,322,14,68,02,140,17,88,,,*59

$GLGSV,3,3,09,87,02,350,*57

$GPGGA,171551.0,4228.581087,N,08307.046385,W,1,08,0.8,183.2,M,-34.0,M,,*65

$GNGNS,171551.0,4228.581087,N,08307.046385,W,AA,14,0.8,183.2,-34.0,,*5C

$GPVTG,259.4,T,259.4,M,48.9,N,90.5,K,A*2A

$GPRMC,171551.0,A,4228.581087,N,08307.046385,W,48.9,259.4,290315,0.0,E,A*2D

$GPGSA,A,2,01,03,04,14,22,25,31,32,,,,,1.1,0.8,0.8*34

$GNGSA,A,2,01,03,04,14,22,25,31,32,,,,,1.1,0.8,0.8*2A

$GNGSA,A,2,69,70,71,73,79,80,,,,,,,1.1,0.8,0.8*21

$GPGSV,3,1,11,01,17,278,19,03,19,314,13,04,15,248,25,08,,,21*44

$GPGSV,3,2,11,11,00,260,17,12,11,035,17,14,55,077,21,22,26,161,27*78

$GPGSV,3,3,11,25,39,063,18,31,76,262,25,32,61,282,25*43

$GLGSV,3,1,09,70,64,326,20,73,17,219,29,80,69,229,19,79,44,032,14*61

$GLGSV,3,2,09,69,52,139,28,71,13,322,14,68,02,140,17,88,,,*59

$GLGSV,3,3,09,87,02,350,*57

$GPGGA,171551.0,4228.581087,N,08307.046385,W,1,08,0.8,183.2,M,-34.0,M,,*65

$GNGNS,171551.0,4228.581087,N,08307.046385,W,AA,14,0.8,183.2,-34.0,,*5C

$GPVTG,259.4,T,259.4,M,48.9,N,90.5,K,A*2A

$GPRMC,171551.0,A,4228.581087,N,08307.046385,W,48.9,259.4,290315,0.0,E,A*2D

$GPGSA,A,2,01,03,04,14,22,25,31,32,,,,,1.1,0.8,0.8*34

$GNGSA,A,2,01,03,04,14,22,25,31,32,,,,,1.1,0.8,0.8*2A

$GNGSA,A,2,69,70,71,73,79,80,,,,,,,1.1,0.8,0.8*21

$GPGSV,3,1,11,01,17,278,18,03,19,314,19,04,15,248,27,08,,,21*4D

$GPGSV,3,2,11,11,00,260,16,12,11,035,17,14,55,077,21,22,26,161,28*76

$GPGSV,3,3,11,25,39,063,18,31,76,262,24,32,61,282,23*44

$GPGSV,3,1,11,01,17,278,18,03,19,314,19,04,15,248,27,08,,,21*4D

$GPGSV,3,2,11,11,00,260,16,12,11,035,17,14,55,077,21,22,26,161,28*76

$GPGSV,3,3,11,25,39,063,18,31,76,262,24,32,61,282,23*44

$GLGSV,3,1,09,70,64,326,16,73,17,219,30,80,69,229,20,79,44,032,14*66

$GLGSV,3,1,09,70,64,326,16,73,17,219,30,80,69,229,20,79,44,032,14*66

$GLGSV,3,2,09,69,52,139,29,71,13,322,19,68,02,140,17,88,,,*55

$GLGSV,3,3,09,87,02,350,*57

$GLGSV,3,2,09,69,52,139,29,71,13,322,19,68,02,140,17,88,,,*55

$GLGSV,3,3,09,87,02,350,*57

$GPGGA,171552.0,4228.581635,N,08307.063516,W,1,08,0.8,181.5,M,-34.0,M,,*67

$GNGNS,171552.0,4228.581635,N,08307.063516,W,AA,14,0.8,181.5,-34.0,,*5E

$GPVTG,263.8,T,263.8,M,49.1,N,90.9,K,A*2F

$GPRMC,171552.0,A,4228.581635,N,08307.063516,W,49.1,263.8,290315,0.0,E,A*26

$GPGSA,A,2,01,03,04,14,22,25,31,32,,,,,1.1,0.8,0.8*34

$GNGSA,A,2,01,03,04,14,22,25,31,32,,,,,1.1,0.8,0.8*2A

$GNGSA,A,2,69,70,71,73,79,80,,,,,,,1.1,0.8,0.8*21

$GPGGA,171552.0,4228.581635,N,08307.063516,W,1,08,0.8,181.5,M,-34.0,M,,*67

$GNGNS,171552.0,4228.581635,N,08307.063516,W,AA,14,0.8,181.5,-34.0,,*5E

$GPVTG,263.8,T,263.8,M,49.1,N,90.9,K,A*2F

$GPRMC,171552.0,A,4228.581635,N,08307.063516,W,49.1,263.8,290315,0.0,E,A*26

$GPGSA,A,2,01,03,04,14,22,25,31,32,,,,,1.1,0.8,0.8*34

$GNGSA,A,2,01,03,04,14,22,25,31,32,,,,,1.1,0.8,0.8*2A

$GNGSA,A,2,69,70,71,73,79,80,,,,,,,1.1,0.8,0.8*21

$GPGSV,3,1,11,01,17,278,17,03,19,314,21,04,15,248,27,08,,,21*49

$GPGSV,3,2,11,11,00,260,16,12,11,035,17,14,55,077,21,22,26,161,27*79

$GPGSV,3,3,11,25,39,063,18,31,76,262,23,32,61,282,17*44

$GPGSV,3,1,11,01,17,278,17,03,19,314,21,04,15,248,27,08,,,21*49

$GPGSV,3,2,11,11,00,260,16,12,11,035,17,14,55,077,21,22,26,161,27*79

$GPGSV,3,3,11,25,39,063,18,31,76,262,23,32,61,282,17*44

$GLGSV,3,1,09,70,64,326,16,73,17,219,29,80,69,229,18,79,44,032,14*65

$GLGSV,3,2,09,69,52,139,28,71,13,322,19,68,02,140,17,88,,,*54

$GLGSV,3,3,09,87,02,350,*57

$GPGGA,171553.0,4228.580913,N,08307.081346,W,1,08,0.8,182.8,M,-34.0,M,,*6D

$GNGNS,171553.0,4228.580913,N,08307.081346,W,AA,14,0.8,182.8,-34.0,,*54

$GPVTG,265.5,T,265.5,M,49.8,N,92.2,K,A*2F

$GPRMC,171553.0,A,4228.580913,N,08307.081346,W,49.8,265.5,290315,0.0,E,A*20

$GPGSA,A,2,01,03,04,14,22,25,31,32,,,,,1.1,0.8,0.8*34

$GNGSA,A,2,01,03,04,14,22,25,31,32,,,,,1.1,0.8,0.8*2A

$GNGSA,A,2,69,70,71,73,79,80,,,,,,,1.1,0.8,0.8*21

$GLGSV,3,1,09,70,64,326,16,73,17,219,29,80,69,229,18,79,44,032,14*65

$GLGSV,3,2,09,69,52,139,28,71,13,322,19,68,02,140,17,88,,,*54

$GLGSV,3,3,09,87,02,350,*57

$GPGGA,171553.0,4228.580913,N,08307.081346,W,1,08,0.8,182.8,M,-34.0,M,,*6D

$GNGNS,171553.0,4228.580913,N,08307.081346,W,AA,14,0.8,182.8,-34.0,,*54

$GPVTG,265.5,T,265.5,M,49.8,N,92.2,K,A*2F

$GPRMC,171553.0,A,4228.580913,N,08307.081346,W,49.8,265.5,290315,0.0,E,A*20

$GPGSA,A,2,01,03,04,14,22,25,31,32,,,,,1.1,0.8,0.8*34

$GNGSA,A,2,01,03,04,14,22,25,31,32,,,,,1.1,0.8,0.8*2A

$GNGSA,A,2,69,70,71,73,79,80,,,,,,,1.1,0.8,0.8*21

$GPGSV,3,1,11,01,17,278,19,03,19,314,21,04,15,248,29,08,,,21*49

$GPGSV,3,2,11,11,00,260,21,12,11,035,17,14,55,077,19,22,26,161,25*74

$GPGSV,3,3,11,25,39,063,15,31,76,262,21,32,61,282,17*4B

$GLGSV,3,1,09,70,64,326,16,73,17,219,27,80,69,229,19,79,44,032,14*6A

$GLGSV,3,2,09,69,52,139,28,71,13,322,18,68,02,140,17,88,,,*55

$GLGSV,3,3,09,87,02,350,*57

$GPGGA,171554.0,4228.579068,N,08307.099335,W,1,08,0.8,184.4,M,-34.0,M,,*6E

$GNGNS,171554.0,4228.579068,N,08307.099335,W,AA,14,0.8,184.4,-34.0,,*57

$GPVTG,265.4,T,265.4,M,48.2,N,89.2,K,A*2E

$GPRMC,171554.0,A,4228.579068,N,08307.099335,W,48.2,265.4,290315,0.0,E,A*23

$GPGSA,A,2,01,03,04,14,22,25,31,32,,,,,1.1,0.8,0.8*34

$GNGSA,A,2,01,03,04,14,22,25,31,32,,,,,1.1,0.8,0.8*2A

$GPGSV,3,1,11,01,17,278,19,03,19,314,21,04,15,248,29,08,,,21*49

$GPGSV,3,2,11,11,00,260,21,12,11,035,17,14,55,077,19,22,26,161,25*74

$GPGSV,3,3,11,25,39,063,15,31,76,262,21,32,61,282,17*4B

$GLGSV,3,1,09,70,64,326,16,73,17,219,27,80,69,229,19,79,44,032,14*6A

$GLGSV,3,2,09,69,52,139,28,71,13,322,18,68,02,140,17,88,,,*55

$GLGSV,3,3,09,87,02,350,*57

$GPGGA,171554.0,4228.579068,N,08307.099335,W,1,08,0.8,184.4,M,-34.0,M,,*6E

$GNGNS,171554.0,4228.579068,N,08307.099335,W,AA,14,0.8,184.4,-34.0,,*57

$GPVTG,265.4,T,265.4,M,48.2,N,89.2,K,A*2E

$GPRMC,171554.0,A,4228.579068,N,08307.099335,W,48.2,265.4,290315,0.0,E,A*23

$GPGSA,A,2,01,03,04,14,22,25,31,32,,,,,1.1,0.8,0.8*34

$GNGSA,A,2,01,03,04,14,22,25,31,32,,,,,1.1,0.8,0.8*2A

$GNGSA,A,2,69,70,71,73,79,80,,,,,,,1.1,0.8,0.8*21

$GNGSA,A,2,69,70,71,73,79,80,,,,,,,1.1,0.8,0.8*21

$GPGSV,3,1,11,01,17,278,21,03,19,314,18,04,15,248,27,08,,,21*46

$GPGSV,3,2,11,11,00,260,21,12,11,035,10,14,55,077,19,22,26,161,26*70

$GPGSV,3,3,11,25,39,063,21,31,76,262,21,32,61,282,15*4E

$GPGSV,3,1,11,01,17,278,21,03,19,314,18,04,15,248,27,08,,,21*46

$GPGSV,3,2,11,11,00,260,21,12,11,035,10,14,55,077,19,22,26,161,26*70

$GPGSV,3,3,11,25,39,063,21,31,76,262,21,32,61,282,15*4E

$GLGSV,3,1,09,70,64,326,16,73,17,219,27,80,69,229,17,79,44,032,20*63

$GLGSV,3,2,09,69,52,139,28,71,13,322,18,68,02,140,17,88,,,*55

$GLGSV,3,3,09,87,02,350,*57

$GPGGA,171555.0,4228.578520,N,08307.118874,W,1,09,0.7,185.5,M,-34.0,M,,*6F

$GNGNS,171555.0,4228.578520,N,08307.118874,W,AA,15,0.7,185.5,-34.0,,*56

$GPVTG,266.8,T,266.8,M,51.1,N,94.6,K,A*2D

$GPRMC,171555.0,A,4228.578520,N,08307.118874,W,51.1,266.8,290315,0.0,E,A*28

$GLGSV,3,1,09,70,64,326,16,73,17,219,27,80,69,229,17,79,44,032,20*63

$GLGSV,3,2,09,69,52,139,28,71,13,322,18,68,02,140,17,88,,,*55

$GLGSV,3,3,09,87,02,350,*57

$GPGGA,171555.0,4228.578520,N,08307.118874,W,1,09,0.7,185.5,M,-34.0,M,,*6F

$GNGNS,171555.0,4228.578520,N,08307.118874,W,AA,15,0.7,185.5,-34.0,,*56

$GPVTG,266.8,T,266.8,M,51.1,N,94.6,K,A*2D

$GPRMC,171555.0,A,4228.578520,N,08307.118874,W,51.1,266.8,290315,0.0,E,A*28

$GPGSA,A,2,01,03,04,12,14,22,25,31,32,,,,1.0,0.7,0.7*36

$GNGSA,A,2,01,03,04,12,14,22,25,31,32,,,,1.0,0.7,0.7*28

$GNGSA,A,2,69,70,71,73,79,80,,,,,,,1.0,0.7,0.7*20

$GPGSA,A,2,01,03,04,12,14,22,25,31,32,,,,1.0,0.7,0.7*36

$GNGSA,A,2,01,03,04,12,14,22,25,31,32,,,,1.0,0.7,0.7*28

$GNGSA,A,2,69,70,71,73,79,80,,,,,,,1.0,0.7,0.7*20

$GPGSV,3,1,11,01,17,278,19,03,19,314,21,04,15,248,28,08,,,21*48

$GPGSV,3,2,11,11,00,260,20,12,11,035,10,14,55,077,19,22,26,161,25*72

$GPGSV,3,3,11,25,39,063,22,31,76,262,22,32,61,282,15*4E

$GLGSV,3,1,09,70,64,326,16,73,17,219,29,80,69,229,20,79,44,032,16*6C

$GLGSV,3,2,09,69,52,139,28,71,13,322,17,68,02,140,17,88,,,*5A

$GLGSV,3,3,09,87,02,350,*57

$GPGGA,171556.0,4228.578373,N,08307.137649,W,1,09,0.7,185.4,M,-34.0,M,,*60

$GNGNS,171556.0,4228.578373,N,08307.137649,W,AA,15,0.7,185.4,-34.0,,*59

$GPVTG,268.2,T,268.2,M,50.5,N,93.6,K,A*2F

$GPRMC,171556.0,A,4228.578373,N,08307.137649,W,50.5,268.2,290315,0.0,E,A*27

$GPGSA,A,2,01,03,04,12,14,22,25,31,32,,,,1.0,0.7,0.7*36

$GNGSA,A,2,01,03,04,12,14,22,25,31,32,,,,1.0,0.7,0.7*28

$GNGSA,A,2,69,70,71,73,79,80,,,,,,,1.0,0.7,0.7*20

$GPGSV,3,1,11,01,17,278,19,03,19,314,21,04,15,248,28,08,,,21*48

$GPGSV,3,2,11,11,00,260,20,12,11,035,10,14,55,077,19,22,26,161,25*72

$GPGSV,3,3,11,25,39,063,22,31,76,262,22,32,61,282,15*4E

$GLGSV,3,1,09,70,64,326,16,73,17,219,29,80,69,229,20,79,44,032,16*6C

$GLGSV,3,2,09,69,52,139,28,71,13,322,17,68,02,140,17,88,,,*5A

$GLGSV,3,3,09,87,02,350,*57

$GPGGA,171556.0,4228.578373,N,08307.137649,W,1,09,0.7,185.4,M,-34.0,M,,*60

$GNGNS,171556.0,4228.578373,N,08307.137649,W,AA,15,0.7,185.4,-34.0,,*59

$GPVTG,268.2,T,268.2,M,50.5,N,93.6,K,A*2F

$GPRMC,171556.0,A,4228.578373,N,08307.137649,W,50.5,268.2,290315,0.0,E,A*27

$GPGSA,A,2,01,03,04,12,14,22,25,31,32,,,,1.0,0.7,0.7*36

$GNGSA,A,2,01,03,04,12,14,22,25,31,32,,,,1.0,0.7,0.7*28

$GNGSA,A,2,69,70,71,73,79,80,,,,,,,1.0,0.7,0.7*20

$GPGSV,3,1,11,01,17,278,19,03,19,314,23,04,15,248,27,08,,,21*45

$GPGSV,3,1,11,01,17,278,19,03,19,314,23,04,15,248,27,08,,,21*45

$GPGSV,3,2,11,11,00,260,21,12,11,035,10,14,55,077,19,22,26,161,26*70

$GPGSV,3,2,11,11,00,260,21,12,11,035,10,14,55,077,19,22,26,161,26*70

$GPGSV,3,3,11,25,39,063,22,31,76,262,22,32,61,282,18*43

$GLGSV,3,1,09,70,64,326,16,73,17,219,29,80,69,229,20,79,44,032,22*6B

$GLGSV,3,2,09,69,52,139,28,71,13,322,17,68,02,140,17,88,,,*5A

$GLGSV,3,3,09,87,02,350,*57

$GPGGA,171557.0,4228.577721,N,08307.157641,W,1,09,0.7,184.6,M,-34.0,M,,*60

$GNGNS,171557.0,4228.577721,N,08307.157641,W,AA,15,0.7,184.6,-34.0,,*59

$GPVTG,267.9,T,267.9,M,52.2,N,96.6,K,A*2F

$GPRMC,171557.0,A,4228.577721,N,08307.157641,W,52.2,267.9,290315,0.0,E,A*25

$GPGSA,A,2,01,03,04,12,14,22,25,31,32,,,,1.0,0.7,0.7*36

$GNGSA,A,2,01,03,04,12,14,22,25,31,32,,,,1.0,0.7,0.7*28

$GNGSA,A,2,69,70,71,73,79,80,,,,,,,1.0,0.7,0.7*20

$GPGSV,3,3,11,25,39,063,22,31,76,262,22,32,61,282,18*43

$GLGSV,3,1,09,70,64,326,16,73,17,219,29,80,69,229,20,79,44,032,22*6B

$GLGSV,3,2,09,69,52,139,28,71,13,322,17,68,02,140,17,88,,,*5A

$GLGSV,3,3,09,87,02,350,*57

$GPGGA,171557.0,4228.577721,N,08307.157641,W,1,09,0.7,184.6,M,-34.0,M,,*60

$GNGNS,171557.0,4228.577721,N,08307.157641,W,AA,15,0.7,184.6,-34.0,,*59

$GPVTG,267.9,T,267.9,M,52.2,N,96.6,K,A*2F

$GPRMC,171557.0,A,4228.577721,N,08307.157641,W,52.2,267.9,290315,0.0,E,A*25

$GPGSA,A,2,01,03,04,12,14,22,25,31,32,,,,1.0,0.7,0.7*36

$GNGSA,A,2,01,03,04,12,14,22,25,31,32,,,,1.0,0.7,0.7*28

$GNGSA,A,2,69,70,71,73,79,80,,,,,,,1.0,0.7,0.7*20

$GPGSV,3,1,11,01,17,278,20,03,19,314,22,04,15,248,28,08,,,17*44

$GPGSV,3,2,11,11,00,260,19,12,11,035,10,14,55,077,19,22,26,161,25*78

$GPGSV,3,1,11,01,17,278,20,03,19,314,22,04,15,248,28,08,,,17*44

$GPGSV,3,2,11,11,00,260,19,12,11,035,10,14,55,077,19,22,26,161,25*78

$GPGSV,3,3,11,25,39,063,24,31,76,262,24,32,61,282,17*4C

$GLGSV,3,1,09,70,64,326,13,73,17,219,28,80,69,229,18,79,44,032,21*67

$GLGSV,3,2,09,69,52,139,29,71,13,322,17,68,02,140,17,88,,,*5B

$GLGSV,3,3,09,87,02,350,*57

$GPGGA,171558.0,4228.576551,N,08307.178358,W,1,09,0.7,187.2,M,-34.0,M,,*6C

$GNGNS,171558.0,4228.576551,N,08307.178358,W,AA,15,0.7,187.2,-34.0,,*55

$GPVTG,267.4,T,267.4,M,53.7,N,99.4,K,A*26

$GPRMC,171558.0,A,4228.576551,N,08307.178358,W,53.7,267.4,290315,0.0,E,A*27

$GPGSA,A,2,01,03,04,12,14,22,25,31,32,,,,1.0,0.7,0.7*36

$GNGSA,A,2,01,03,04,12,14,22,25,31,32,,,,1.0,0.7,0.7*28

$GNGSA,A,2,69,70,71,73,79,80,,,,,,,1.0,0.7,0.7*20

$GPGSV,3,3,11,25,39,063,24,31,76,262,24,32,61,282,17*4C

$GLGSV,3,1,09,70,64,326,13,73,17,219,28,80,69,229,18,79,44,032,21*67

$GLGSV,3,2,09,69,52,139,29,71,13,322,17,68,02,140,17,88,,,*5B

$GLGSV,3,3,09,87,02,350,*57

$GPGGA,171558.0,4228.576551,N,08307.178358,W,1,09,0.7,187.2,M,-34.0,M,,*6C

$GNGNS,171558.0,4228.576551,N,08307.178358,W,AA,15,0.7,187.2,-34.0,,*55

$GPVTG,267.4,T,267.4,M,53.7,N,99.4,K,A*26

$GPRMC,171558.0,A,4228.576551,N,08307.178358,W,53.7,267.4,290315,0.0,E,A*27

$GPGSA,A,2,01,03,04,12,14,22,25,31,32,,,,1.0,0.7,0.7*36

$GNGSA,A,2,01,03,04,12,14,22,25,31,32,,,,1.0,0.7,0.7*28

$GNGSA,A,2,69,70,71,73,79,80,,,,,,,1.0,0.7,0.7*20

$GPGSV,3,1,11,01,17,278,20,03,19,314,21,04,15,248,28,08,,,17*47

$GPGSV,3,2,11,11,00,260,19,12,11,035,10,14,55,077,20,22,26,161,25*72

$GPGSV,3,1,11,01,17,278,20,03,19,314,21,04,15,248,28,08,,,17*47

$GPGSV,3,2,11,11,00,260,19,12,11,035,10,14,55,077,20,22,26,161,25*72

$GPGSV,3,3,11,25,39,063,23,31,76,262,23,32,61,282,17*4C

$GPGSV,3,3,11,25,39,063,23,31,76,262,23,32,61,282,17*4C

$GLGSV,3,1,09,70,64,326,18,73,17,219,25,80,69,229,18,79,44,032,21*61

$GLGSV,3,2,09,69,52,139,27,71,13,322,19,68,02,140,8,88,,,*65

$GLGSV,3,3,09,87,02,350,*57

$GPGGA,171559.0,4228.575159,N,08307.198920,W,1,09,0.7,190.0,M,-34.0,M,,*6D

$GNGNS,171559.0,4228.575159,N,08307.198920,W,AA,15,0.7,190.0,-34.0,,*54

$GPVTG,266.7,T,266.7,M,54.4,N,100.7,K,A*10

$GPRMC,171559.0,A,4228.575159,N,08307.198920,W,54.4,266.7,290315,0.0,E,A*24

$GPGSA,A,2,01,03,04,12,14,22,25,31,32,,,,1.0,0.7,0.7*36

$GNGSA,A,2,01,03,04,12,14,22,25,31,32,,,,1.0,0.7,0.7*28

$GNGSA,A,2,69,70,71,73,79,80,,,,,,,1.0,0.7,0.7*20

$GLGSV,3,1,09,70,64,326,18,73,17,219,25,80,69,229,18,79,44,032,21*61

$GLGSV,3,2,09,69,52,139,27,71,13,322,19,68,02,140,8,88,,,*65

$GLGSV,3,3,09,87,02,350,*57

$GPGGA,171559.0,4228.575159,N,08307.198920,W,1,09,0.7,190.0,M,-34.0,M,,*6D

$GNGNS,171559.0,4228.575159,N,08307.198920,W,AA,15,0.7,190.0,-34.0,,*54

$GPVTG,266.7,T,266.7,M,54.4,N,100.7,K,A*10

$GPRMC,171559.0,A,4228.575159,N,08307.198920,W,54.4,266.7,290315,0.0,E,A*24

$GPGSA,A,2,01,03,04,12,14,22,25,31,32,,,,1.0,0.7,0.7*36

$GNGSA,A,2,01,03,04,12,14,22,25,31,32,,,,1.0,0.7,0.7*28

$GNGSA,A,2,69,70,71,73,79,80,,,,,,,1.0,0.7,0.7*20

$GPGSV,3,1,11,01,17,278,19,03,19,314,22,04,15,248,28,08,,,18*41

$GPGSV,3,2,11,11,00,260,19,12,11,035,10,14,55,077,17,22,26,161,25*76

$GPGSV,3,3,11,25,39,063,24,31,76,262,23,32,61,282,17*4B

$GPGSV,3,1,11,01,17,278,19,03,19,314,22,04,15,248,28,08,,,18*41

$GPGSV,3,2,11,11,00,260,19,12,11,035,10,14,55,077,17,22,26,161,25*76

$GPGSV,3,3,11,25,39,063,24,31,76,262,23,32,61,282,17*4B

$GLGSV,3,1,09,70,64,326,19,73,17,219,25,80,69,229,16,79,44,032,21*6E

$GLGSV,3,2,09,69,52,139,27,71,13,322,17,68,02,140,8,88,,,*6B

$GLGSV,3,3,09,87,02,350,*57

$GPGGA,171600.0,4228.576211,N,08307.220077,W,1,09,0.7,189.8,M,-34.0,M,,*65

$GNGNS,171600.0,4228.576211,N,08307.220077,W,AA,15,0.7,189.8,-34.0,,*5C

$GPVTG,268.7,T,268.7,M,56.1,N,103.9,K,A*1A

$GPRMC,171600.0,A,4228.576211,N,08307.220077,W,56.1,268.7,290315,0.0,E,A*25

$GPGSA,A,2,01,03,04,12,14,22,25,31,32,,,,1.0,0.7,0.7*36

$GNGSA,A,2,01,03,04,12,14,22,25,31,32,,,,1.0,0.7,0.7*28

$GNGSA,A,2,69,70,71,73,79,80,,,,,,,1.0,0.7,0.7*20

$GLGSV,3,1,09,70,64,326,19,73,17,219,25,80,69,229,16,79,44,032,21*6E

$GLGSV,3,2,09,69,52,139,27,71,13,322,17,68,02,140,8,88,,,*6B

$GLGSV,3,3,09,87,02,350,*57

$GPGGA,171600.0,4228.576211,N,08307.220077,W,1,09,0.7,189.8,M,-34.0,M,,*65

$GNGNS,171600.0,4228.576211,N,08307.220077,W,AA,15,0.7,189.8,-34.0,,*5C

$GPVTG,268.7,T,268.7,M,56.1,N,103.9,K,A*1A

$GPRMC,171600.0,A,4228.576211,N,08307.220077,W,56.1,268.7,290315,0.0,E,A*25

$GPGSA,A,2,01,03,04,12,14,22,25,31,32,,,,1.0,0.7,0.7*36

$GNGSA,A,2,01,03,04,12,14,22,25,31,32,,,,1.0,0.7,0.7*28

$GNGSA,A,2,69,70,71,73,79,80,,,,,,,1.0,0.7,0.7*20

$GPGSV,3,1,11,01,17,278,18,03,19,314,22,04,15,248,29,08,,,18*41

$GPGSV,3,2,11,11,00,260,19,12,11,035,10,14,55,077,18,22,26,161,25*79

$GPGSV,3,3,11,25,39,063,24,31,76,262,23,32,61,282,17*4B

$GLGSV,3,1,09,70,64,326,21,73,17,219,24,80,69,229,18,79,44,032,20*6B

$GLGSV,3,2,09,69,52,139,27,71,13,322,17,68,02,140,8,88,,,*6B

$GLGSV,3,3,09,87,02,350,*57

$GPGGA,171601.0,4228.575277,N,08307.244476,W,1,09,0.7,191.0,M,-34.0,M,,*61

$GNGNS,171601.0,4228.575277,N,08307.244476,W,AA,15,0.7,191.0,-34.0,,*58

$GPVTG,268.1,T,268.1,M,59.2,N,109.7,K,A*12

$GPGSV,3,1,11,01,17,278,18,03,19,314,22,04,15,248,29,08,,,18*41

$GPGSV,3,2,11,11,00,260,19,12,11,035,10,14,55,077,18,22,26,161,25*79

$GPGSV,3,3,11,25,39,063,24,31,76,262,23,32,61,282,17*4B

$GLGSV,3,1,09,70,64,326,21,73,17,219,24,80,69,229,18,79,44,032,20*6B

$GLGSV,3,2,09,69,52,139,27,71,13,322,17,68,02,140,8,88,,,*6B

$GLGSV,3,3,09,87,02,350,*57

$GPGGA,171601.0,4228.575277,N,08307.244476,W,1,09,0.7,191.0,M,-34.0,M,,*61

$GNGNS,171601.0,4228.575277,N,08307.244476,W,AA,15,0.7,191.0,-34.0,,*58

$GPVTG,268.1,T,268.1,M,59.2,N,109.7,K,A*12

$GPRMC,171601.0,A,4228.575277,N,08307.244476,W,59.2,268.1,290315,0.0,E,A*2A

$GPRMC,171601.0,A,4228.575277,N,08307.244476,W,59.2,268.1,290315,0.0,E,A*2A

$GPGSA,A,2,01,03,04,12,14,22,25,31,32,,,,1.0,0.7,0.7*36

$GPGSA,A,2,01,03,04,12,14,22,25,31,32,,,,1.0,0.7,0.7*36

$GNGSA,A,2,01,03,04,12,14,22,25,31,32,,,,1.0,0.7,0.7*28

$GNGSA,A,2,01,03,04,12,14,22,25,31,32,,,,1.0,0.7,0.7*28

$GNGSA,A,2,69,70,71,73,79,80,,,,,,,1.0,0.7,0.7*20

$GNGSA,A,2,69,70,71,73,79,80,,,,,,,1.0,0.7,0.7*20

$GPGSV,3,1,11,01,17,278,19,03,19,314,24,04,15,248,29,08,,,16*48

$GPGSV,3,2,11,11,00,260,19,12,11,035,10,14,55,077,18,22,26,161,26*7A

$GPGSV,3,3,11,25,39,063,24,31,76,262,23,32,61,282,17*4B

$GPGSV,3,1,11,01,17,278,19,03,19,314,24,04,15,248,29,08,,,16*48

$GPGSV,3,2,11,11,00,260,19,12,11,035,10,14,55,077,18,22,26,161,26*7A

$GPGSV,3,3,11,25,39,063,24,31,76,262,23,32,61,282,17*4B

$GLGSV,3,1,09,70,64,326,19,73,17,219,25,80,69,229,18,79,44,032,20*61

$GLGSV,3,2,09,69,52,139,28,71,13,322,17,68,02,140,8,88,,,*64

$GLGSV,3,3,09,87,02,350,*57

$GPGGA,171602.0,4228.580281,N,08307.265819,W,1,08,0.8,189.7,M,-34.0,M,,*67

$GNGNS,171602.0,4228.580281,N,08307.265819,W,AA,14,0.8,189.7,-34.0,,*5E

$GPVTG,273.3,T,273.3,M,59.3,N,109.9,K,A*1D

$GPRMC,171602.0,A,4228.580281,N,08307.265819,W,59.3,273.3,290315,0.0,E,A*25

$GPGSA,A,2,01,03,04,14,22,25,31,32,,,,,1.1,0.8,0.8*34

$GNGSA,A,2,01,03,04,14,22,25,31,32,,,,,1.1,0.8,0.8*2A

$GNGSA,A,2,69,70,71,73,79,80,,,,,,,1.1,0.8,0.8*21

$GLGSV,3,1,09,70,64,326,19,73,17,219,25,80,69,229,18,79,44,032,20*61

$GLGSV,3,2,09,69,52,139,28,71,13,322,17,68,02,140,8,88,,,*64

$GLGSV,3,3,09,87,02,350,*57

$GPGGA,171602.0,4228.580281,N,08307.265819,W,1,08,0.8,189.7,M,-34.0,M,,*67

$GNGNS,171602.0,4228.580281,N,08307.265819,W,AA,14,0.8,189.7,-34.0,,*5E

$GPVTG,273.3,T,273.3,M,59.3,N,109.9,K,A*1D

$GPRMC,171602.0,A,4228.580281,N,08307.265819,W,59.3,273.3,290315,0.0,E,A*25

$GPGSA,A,2,01,03,04,14,22,25,31,32,,,,,1.1,0.8,0.8*34

$GNGSA,A,2,01,03,04,14,22,25,31,32,,,,,1.1,0.8,0.8*2A

$GNGSA,A,2,69,70,71,73,79,80,,,,,,,1.1,0.8,0.8*21

$GPGSV,3,1,11,01,17,278,19,03,19,314,23,04,15,248,28,08,,,16*4E

$GPGSV,3,2,11,11,00,260,19,12,11,035,10,14,55,077,18,22,26,161,25*79

$GPGSV,3,1,11,01,17,278,19,03,19,314,23,04,15,248,28,08,,,16*4E

$GPGSV,3,2,11,11,00,260,19,12,11,035,10,14,55,077,18,22,26,161,25*79

$GPGSV,3,3,11,25,39,063,23,31,76,262,22,32,61,282,17*4D

$GPGSV,3,3,11,25,39,063,23,31,76,262,22,32,61,282,17*4D

$GLGSV,3,1,09,70,64,326,18,73,17,219,24,80,69,229,20,79,44,032,19*60

$GLGSV,3,2,09,69,52,139,27,71,13,322,17,68,02,140,8,88,,,*6B

$GLGSV,3,3,09,87,02,350,*57

$GPGGA,171603.0,4228.576230,N,08307.285600,W,1,08,0.8,191.2,M,-34.0,M,,*61

$GNGNS,171603.0,4228.576230,N,08307.285600,W,AA,14,0.8,191.2,-34.0,,*58

$GLGSV,3,1,09,70,64,326,18,73,17,219,24,80,69,229,20,79,44,032,19*60

$GLGSV,3,2,09,69,52,139,27,71,13,322,17,68,02,140,8,88,,,*6B

$GLGSV,3,3,09,87,02,350,*57

$GPGGA,171603.0,4228.576230,N,08307.285600,W,1,08,0.8,191.2,M,-34.0,M,,*61

$GNGNS,171603.0,4228.576230,N,08307.285600,W,AA,14,0.8,191.2,-34.0,,*58

$GPVTG,268.0,T,268.0,M,56.9,N,105.5,K,A*18

$GPRMC,171603.0,A,4228.576230,N,08307.285600,W,56.9,268.0,290315,0.0,E,A*23

$GPGSA,A,2,01,03,04,14,22,25,31,32,,,,,1.1,0.8,0.8*34

$GNGSA,A,2,01,03,04,14,22,25,31,32,,,,,1.1,0.8,0.8*2A

$GNGSA,A,2,69,70,71,73,79,80,,,,,,,1.1,0.8,0.8*21

$GPVTG,268.0,T,268.0,M,56.9,N,105.5,K,A*18

$GPRMC,171603.0,A,4228.576230,N,08307.285600,W,56.9,268.0,290315,0.0,E,A*23

$GPGSA,A,2,01,03,04,14,22,25,31,32,,,,,1.1,0.8,0.8*34

$GNGSA,A,2,01,03,04,14,22,25,31,32,,,,,1.1,0.8,0.8*2A

$GNGSA,A,2,69,70,71,73,79,80,,,,,,,1.1,0.8,0.8*21

$GPGSV,3,1,11,01,17,278,22,03,19,314,20,04,15,248,29,08,,,16*44

$GPGSV,3,1,11,01,17,278,22,03,19,314,20,04,15,248,29,08,,,16*44

$GPGSV,3,2,11,11,00,260,19,12,11,035,10,14,55,077,14,22,26,161,26*76

$GPGSV,3,3,11,25,39,063,24,31,76,262,23,32,61,282,17*4B

$GLGSV,3,1,09,70,64,326,18,73,17,219,24,80,69,229,19,79,44,032,21*61

$GPGSV,3,2,11,11,00,260,19,12,11,035,10,14,55,077,14,22,26,161,26*76

$GPGSV,3,3,11,25,39,063,24,31,76,262,23,32,61,282,17*4B

$GLGSV,3,1,09,70,64,326,18,73,17,219,24,80,69,229,19,79,44,032,21*61

$GLGSV,3,2,09,69,52,139,27,71,13,322,17,68,02,140,8,88,,,*6B

$GLGSV,3,3,09,87,02,350,*57

$GPGGA,171604.0,4228.573359,N,08307.307549,W,1,08,0.8,192.4,M,-34.0,M,,*6D

$GNGNS,171604.0,4228.573359,N,08307.307549,W,AA,14,0.8,192.4,-34.0,,*54

$GLGSV,3,2,09,69,52,139,27,71,13,322,17,68,02,140,8,88,,,*6B

$GLGSV,3,3,09,87,02,350,*57

$GPGGA,171604.0,4228.573359,N,08307.307549,W,1,08,0.8,192.4,M,-34.0,M,,*6D

$GNGNS,171604.0,4228.573359,N,08307.307549,W,AA,14,0.8,192.4,-34.0,,*54

$GPVTG,265.5,T,265.5,M,58.3,N,108.0,K,A*14

$GPRMC,171604.0,A,4228.573359,N,08307.307549,W,58.3,265.5,290315,0.0,E,A*26

$GPGSA,A,2,01,03,04,14,22,25,31,32,,,,,1.1,0.8,0.8*34

$GPVTG,265.5,T,265.5,M,58.3,N,108.0,K,A*14

$GPRMC,171604.0,A,4228.573359,N,08307.307549,W,58.3,265.5,290315,0.0,E,A*26

$GPGSA,A,2,01,03,04,14,22,25,31,32,,,,,1.1,0.8,0.8*34

$GNGSA,A,2,01,03,04,14,22,25,31,32,,,,,1.1,0.8,0.8*2A

$GNGSA,A,2,69,70,71,73,79,80,,,,,,,1.1,0.8,0.8*21

$GNGSA,A,2,01,03,04,14,22,25,31,32,,,,,1.1,0.8,0.8*2A

$GNGSA,A,2,69,70,71,73,79,80,,,,,,,1.1,0.8,0.8*21

$GPGSV,3,1,11,01,17,278,19,03,19,314,20,04,15,248,28,08,,,16*4D

$GPGSV,3,1,11,01,17,278,19,03,19,314,20,04,15,248,28,08,,,16*4D

$GPGSV,3,2,11,11,00,260,19,12,11,035,10,14,55,077,18,22,26,161,24*78

$GPGSV,3,3,11,25,39,063,24,31,76,262,23,32,61,282,17*4B

$GPGSV,3,2,11,11,00,260,19,12,11,035,10,14,55,077,18,22,26,161,24*78

$GPGSV,3,3,11,25,39,063,24,31,76,262,23,32,61,282,17*4B

$GLGSV,3,1,09,70,64,326,18,73,17,219,24,80,69,229,18,79,44,032,20*61

$GLGSV,3,1,09,70,64,326,18,73,17,219,24,80,69,229,18,79,44,032,20*61

$GLGSV,3,2,09,69,52,139,26,71,13,322,17,68,02,140,8,88,,,*6A

$GLGSV,3,3,09,87,02,350,*57

$GPGGA,171605.0,4228.574949,N,08307.331305,W,1,07,0.8,193.0,M,-34.0,M,,*61

$GNGNS,171605.0,4228.574949,N,08307.331305,W,AA,13,0.8,193.0,-34.0,,*50

$GLGSV,3,2,09,69,52,139,26,71,13,322,17,68,02,140,8,88,,,*6A

$GLGSV,3,3,09,87,02,350,*57

$GPGGA,171605.0,4228.574949,N,08307.331305,W,1,07,0.8,193.0,M,-34.0,M,,*61

$GNGNS,171605.0,4228.574949,N,08307.331305,W,AA,13,0.8,193.0,-34.0,,*50

$GPVTG,268.5,T,268.5,M,59.2,N,109.7,K,A*12

$GPVTG,268.5,T,268.5,M,59.2,N,109.7,K,A*12

$GPRMC,171605.0,A,4228.574949,N,08307.331305,W,59.2,268.5,290315,0.0,E,A*2D

$GPGSA,A,2,01,03,04,14,22,25,31,,,,,,1.1,0.8,0.8*35

$GPRMC,171605.0,A,4228.574949,N,08307.331305,W,59.2,268.5,290315,0.0,E,A*2D

$GPGSA,A,2,01,03,04,14,22,25,31,,,,,,1.1,0.8,0.8*35

$GNGSA,A,2,01,03,04,14,22,25,31,,,,,,1.1,0.8,0.8*2B

$GNGSA,A,2,01,03,04,14,22,25,31,,,,,,1.1,0.8,0.8*2B

$GNGSA,A,2,69,70,71,73,79,80,,,,,,,1.1,0.8,0.8*21

$GNGSA,A,2,69,70,71,73,79,80,,,,,,,1.1,0.8,0.8*21

$GPGSV,3,1,11,01,17,277,19,03,20,314,20,04,15,248,29,08,,,16*49

$GPGSV,3,2,11,11,00,260,19,12,11,035,10,14,55,077,18,22,26,161,22*7E

$GPGSV,3,3,11,25,39,063,23,31,76,264,23,32,61,282,17*4A

$GPGSV,3,1,11,01,17,277,19,03,20,314,20,04,15,248,29,08,,,16*49

$GPGSV,3,2,11,11,00,260,19,12,11,035,10,14,55,077,18,22,26,161,22*7E

$GPGSV,3,3,11,25,39,063,23,31,76,264,23,32,61,282,17*4A

$GLGSV,3,1,09,70,64,326,17,73,17,219,21,80,69,229,17,79,44,032,21*65

$GLGSV,3,2,09,69,52,139,26,71,13,322,12,68,02,140,8,88,,,*6F

$GLGSV,3,3,09,87,02,350,*57

$GPGGA,171606.0,4228.571482,N,08307.351147,W,1,07,0.8,193.1,M,-34.0,M,,*6E

$GNGNS,171606.0,4228.571482,N,08307.351147,W,AA,13,0.8,193.1,-34.0,,*5F

$GPVTG,265.6,T,265.6,M,57.5,N,106.5,K,A*16

$GPRMC,171606.0,A,4228.571482,N,08307.351147,W,57.5,265.6,290315,0.0,E,A*24

$GPGSA,A,2,01,03,04,14,22,25,31,,,,,,1.1,0.8,0.8*35

$GNGSA,A,2,01,03,04,14,22,25,31,,,,,,1.1,0.8,0.8*2B

$GNGSA,A,2,69,70,71,73,79,80,,,,,,,1.1,0.8,0.8*21

$GLGSV,3,1,09,70,64,326,17,73,17,219,21,80,69,229,17,79,44,032,21*65

$GLGSV,3,2,09,69,52,139,26,71,13,322,12,68,02,140,8,88,,,*6F

$GLGSV,3,3,09,87,02,350,*57

$GPGGA,171606.0,4228.571482,N,08307.351147,W,1,07,0.8,193.1,M,-34.0,M,,*6E

$GNGNS,171606.0,4228.571482,N,08307.351147,W,AA,13,0.8,193.1,-34.0,,*5F

$GPVTG,265.6,T,265.6,M,57.5,N,106.5,K,A*16

$GPRMC,171606.0,A,4228.571482,N,08307.351147,W,57.5,265.6,290315,0.0,E,A*24

$GPGSA,A,2,01,03,04,14,22,25,31,,,,,,1.1,0.8,0.8*35

$GNGSA,A,2,01,03,04,14,22,25,31,,,,,,1.1,0.8,0.8*2B

$GNGSA,A,2,69,70,71,73,79,80,,,,,,,1.1,0.8,0.8*21

$GPGSV,3,1,11,01,17,277,17,03,20,314,20,04,15,248,29,08,,,16*47

$GPGSV,3,2,11,11,00,260,19,12,11,035,10,14,55,077,15,22,26,161,24*75

$GPGSV,3,3,11,25,39,063,23,31,76,264,22,32,61,282,17*4B

$GLGSV,3,1,09,70,64,326,18,73,17,219,25,80,69,229,17,79,44,032,21*6E

$GLGSV,3,2,09,69,52,139,27,71,13,322,12,68,02,140,8,88,,,*6E

$GLGSV,3,3,09,87,02,350,*57

$GPGGA,171607.0,4228.572964,N,08307.369517,W,1,07,0.8,191.6,M,-34.0,M,,*66

$GNGNS,171607.0,4228.572964,N,08307.369517,W,AA,13,0.8,191.6,-34.0,,*57

$GPVTG,268.2,T,268.2,M,55.1,N,102.0,K,A*11

$GPRMC,171607.0,A,4228.572964,N,08307.369517,W,55.1,268.2,290315,0.0,E,A*26

$GPGSA,A,2,01,03,04,14,22,25,31,,,,,,1.1,0.8,0.8*35

$GPGSV,3,1,11,01,17,277,17,03,20,314,20,04,15,248,29,08,,,16*47

$GPGSV,3,2,11,11,00,260,19,12,11,035,10,14,55,077,15,22,26,161,24*75

$GPGSV,3,3,11,25,39,063,23,31,76,264,22,32,61,282,17*4B

$GLGSV,3,1,09,70,64,326,18,73,17,219,25,80,69,229,17,79,44,032,21*6E

$GLGSV,3,2,09,69,52,139,27,71,13,322,12,68,02,140,8,88,,,*6E

$GLGSV,3,3,09,87,02,350,*57

$GPGGA,171607.0,4228.572964,N,08307.369517,W,1,07,0.8,191.6,M,-34.0,M,,*66

$GNGNS,171607.0,4228.572964,N,08307.369517,W,AA,13,0.8,191.6,-34.0,,*57

$GPVTG,268.2,T,268.2,M,55.1,N,102.0,K,A*11

$GPRMC,171607.0,A,4228.572964,N,08307.369517,W,55.1,268.2,290315,0.0,E,A*26

$GPGSA,A,2,01,03,04,14,22,25,31,,,,,,1.1,0.8,0.8*35

$GNGSA,A,2,01,03,04,14,22,25,31,,,,,,1.1,0.8,0.8*2B

$GNGSA,A,2,69,70,71,73,79,80,,,,,,,1.1,0.8,0.8*21

$GNGSA,A,2,01,03,04,14,22,25,31,,,,,,1.1,0.8,0.8*2B

$GNGSA,A,2,69,70,71,73,79,80,,,,,,,1.1,0.8,0.8*21

$GPGSV,3,1,11,01,17,277,21,03,20,314,20,04,15,248,29,08,,,16*42

$GPGSV,3,1,11,01,17,277,21,03,20,314,20,04,15,248,29,08,,,16*42

$GPGSV,3,2,11,11,00,260,19,12,11,035,10,14,55,077,15,22,26,161,26*77

$GPGSV,3,3,11,25,39,063,24,31,76,264,24,32,61,282,17*4A

$GLGSV,3,1,09,70,64,326,20,73,17,219,24,80,69,229,19,79,44,032,22*69

$GLGSV,3,2,09,69,52,139,28,71,13,322,12,68,02,140,8,88,,,*61

$GLGSV,3,3,09,87,02,350,*57

$GPGGA,171608.0,4228.578667,N,08307.390294,W,1,07,0.8,191.8,M,-34.0,M,,*6B

$GNGNS,171608.0,4228.578667,N,08307.390294,W,AA,13,0.8,191.8,-34.0,,*5A

$GPVTG,274.5,T,274.5,M,55.0,N,101.8,K,A*1B

$GPRMC,171608.0,A,4228.578667,N,08307.390294,W,55.0,274.5,290315,0.0,E,A*2E

$GPGSA,A,2,01,03,04,14,22,25,31,,,,,,1.1,0.8,0.8*35

$GNGSA,A,2,01,03,04,14,22,25,31,,,,,,1.1,0.8,0.8*2B

$GNGSA,A,2,69,70,71,73,79,80,,,,,,,1.1,0.8,0.8*21

$GPGSV,3,2,11,11,00,260,19,12,11,035,10,14,55,077,15,22,26,161,26*77

$GPGSV,3,3,11,25,39,063,24,31,76,264,24,32,61,282,17*4A

$GLGSV,3,1,09,70,64,326,20,73,17,219,24,80,69,229,19,79,44,032,22*69

$GLGSV,3,2,09,69,52,139,28,71,13,322,12,68,02,140,8,88,,,*61

$GLGSV,3,3,09,87,02,350,*57

$GPGGA,171608.0,4228.578667,N,08307.390294,W,1,07,0.8,191.8,M,-34.0,M,,*6B

$GNGNS,171608.0,4228.578667,N,08307.390294,W,AA,13,0.8,191.8,-34.0,,*5A

$GPVTG,274.5,T,274.5,M,55.0,N,101.8,K,A*1B

$GPRMC,171608.0,A,4228.578667,N,08307.390294,W,55.0,274.5,290315,0.0,E,A*2E

$GPGSA,A,2,01,03,04,14,22,25,31,,,,,,1.1,0.8,0.8*35

$GNGSA,A,2,01,03,04,14,22,25,31,,,,,,1.1,0.8,0.8*2B

$GNGSA,A,2,69,70,71,73,79,80,,,,,,,1.1,0.8,0.8*21

$GPGSV,3,1,11,01,17,277,21,03,20,314,20,04,15,248,18,08,,,16*40

$GPGSV,3,2,11,11,00,260,13,12,11,035,10,14,55,077,16,22,26,161,24*7C

$GPGSV,3,3,11,25,39,063,24,31,76,264,21,32,61,282,17*4F

$GPGSV,3,1,11,01,17,277,21,03,20,314,20,04,15,248,18,08,,,16*40

$GPGSV,3,2,11,11,00,260,13,12,11,035,10,14,55,077,16,22,26,161,24*7C

$GPGSV,3,3,11,25,39,063,24,31,76,264,21,32,61,282,17*4F

$GLGSV,3,1,09,70,64,326,17,73,17,219,21,80,69,229,19,79,44,032,21*6B

$GLGSV,3,2,09,69,52,139,26,71,13,322,12,68,02,140,8,88,,,*6F

$GLGSV,3,3,09,87,02,350,*57

$GPGGA,171609.0,4228.578196,N,08307.415943,W,1,07,0.8,191.6,M,-34.0,M,,*66

$GNGNS,171609.0,4228.578196,N,08307.415943,W,AA,13,0.8,191.6,-34.0,,*57

$GPVTG,270.2,T,270.2,M,60.6,N,112.2,K,A*13

$GPRMC,171609.0,A,4228.578196,N,08307.415943,W,60.6,270.2,290315,0.0,E,A*2E

$GPGSA,A,2,01,03,04,14,22,25,31,,,,,,1.1,0.8,0.8*35

$GNGSA,A,2,01,03,04,14,22,25,31,,,,,,1.1,0.8,0.8*2B

$GLGSV,3,1,09,70,64,326,17,73,17,219,21,80,69,229,19,79,44,032,21*6B

$GLGSV,3,2,09,69,52,139,26,71,13,322,12,68,02,140,8,88,,,*6F

$GLGSV,3,3,09,87,02,350,*57

$GPGGA,171609.0,4228.578196,N,08307.415943,W,1,07,0.8,191.6,M,-34.0,M,,*66

$GNGNS,171609.0,4228.578196,N,08307.415943,W,AA,13,0.8,191.6,-34.0,,*57

$GPVTG,270.2,T,270.2,M,60.6,N,112.2,K,A*13

$GPRMC,171609.0,A,4228.578196,N,08307.415943,W,60.6,270.2,290315,0.0,E,A*2E

$GPGSA,A,2,01,03,04,14,22,25,31,,,,,,1.1,0.8,0.8*35

$GNGSA,A,2,01,03,04,14,22,25,31,,,,,,1.1,0.8,0.8*2B

$GNGSA,A,2,69,70,71,73,79,80,,,,,,,1.1,0.8,0.8*21

$GNGSA,A,2,69,70,71,73,79,80,,,,,,,1.1,0.8,0.8*21

$GPGSV,3,1,11,01,17,277,21,03,20,314,20,04,14,248,25,08,,,16*4F

$GPGSV,3,2,11,11,00,260,20,12,11,035,10,14,55,077,16,22,26,161,24*7C

$GPGSV,3,1,11,01,17,277,21,03,20,314,20,04,14,248,25,08,,,16*4F

$GPGSV,3,2,11,11,00,260,20,12,11,035,10,14,55,077,16,22,26,161,24*7C

$GPGSV,3,3,11,25,39,063,24,31,76,262,21,32,61,282,17*49

$GPGSV,3,3,11,25,39,063,24,31,76,262,21,32,61,282,17*49

$GLGSV,3,1,09,70,65,326,17,73,17,219,18,80,69,230,19,79,44,032,21*68

$GLGSV,3,2,09,69,52,139,26,71,13,322,12,68,02,140,8,88,,,*6F

$GLGSV,3,3,09,87,02,350,*57

$GPGGA,171610.0,4228.577948,N,08307.438104,W,1,07,0.8,191.7,M,-34.0,M,,*6F

$GNGNS,171610.0,4228.577948,N,08307.438104,W,AA,13,0.8,191.7,-34.0,,*5E

$GPVTG,270.0,T,270.0,M,60.5,N,112.0,K,A*12

$GPRMC,171610.0,A,4228.577948,N,08307.438104,W,60.5,270.0,290315,0.0,E,A*27

$GPGSA,A,2,01,03,04,14,22,25,31,,,,,,1.1,0.8,0.8*35

$GNGSA,A,2,01,03,04,14,22,25,31,,,,,,1.1,0.8,0.8*2B

$GNGSA,A,2,69,70,71,73,79,80,,,,,,,1.1,0.8,0.8*21

$GLGSV,3,1,09,70,65,326,17,73,17,219,18,80,69,230,19,79,44,032,21*68

$GLGSV,3,2,09,69,52,139,26,71,13,322,12,68,02,140,8,88,,,*6F

$GLGSV,3,3,09,87,02,350,*57

$GPGGA,171610.0,4228.577948,N,08307.438104,W,1,07,0.8,191.7,M,-34.0,M,,*6F

$GNGNS,171610.0,4228.577948,N,08307.438104,W,AA,13,0.8,191.7,-34.0,,*5E

$GPVTG,270.0,T,270.0,M,60.5,N,112.0,K,A*12

$GPRMC,171610.0,A,4228.577948,N,08307.438104,W,60.5,270.0,290315,0.0,E,A*27

$GPGSA,A,2,01,03,04,14,22,25,31,,,,,,1.1,0.8,0.8*35

$GNGSA,A,2,01,03,04,14,22,25,31,,,,,,1.1,0.8,0.8*2B

$GNGSA,A,2,69,70,71,73,79,80,,,,,,,1.1,0.8,0.8*21

$GPGSV,3,1,11,01,17,277,17,03,20,314,20,04,14,248,29,08,,,16*46

$GPGSV,3,2,11,11,00,260,20,12,11,035,10,14,55,077,16,22,26,161,21*79

$GPGSV,3,3,11,25,39,063,18,31,76,262,20,32,61,282,17*47

$GLGSV,3,1,09,70,65,326,17,73,17,219,26,80,69,230,16,79,44,032,16*6E

$GLGSV,3,2,09,69,52,139,23,71,13,322,12,68,02,140,8,88,,,*6A

$GLGSV,3,3,09,87,02,350,*57

$GPGGA,171611.0,4228.577630,N,08307.461312,W,1,06,0.8,191.1,M,-34.0,M,,*60

$GPGSV,3,1,11,01,17,277,17,03,20,314,20,04,14,248,29,08,,,16*46

$GPGSV,3,2,11,11,00,260,20,12,11,035,10,14,55,077,16,22,26,161,21*79

$GPGSV,3,3,11,25,39,063,18,31,76,262,20,32,61,282,17*47

$GLGSV,3,1,09,70,65,326,17,73,17,219,26,80,69,230,16,79,44,032,16*6E

$GLGSV,3,2,09,69,52,139,23,71,13,322,12,68,02,140,8,88,,,*6A

$GLGSV,3,3,09,87,02,350,*57

$GPGGA,171611.0,4228.577630,N,08307.461312,W,1,06,0.8,191.1,M,-34.0,M,,*60

$GNGNS,171611.0,4228.577630,N,08307.461312,W,AA,12,0.8,191.1,-34.0,,*51

$GPVTG,269.8,T,269.8,M,61.1,N,113.2,K,A*14

$GPRMC,171611.0,A,4228.577630,N,08307.461312,W,61.1,269.8,290315,0.0,E,A*2A

$GPGSA,A,2,01,04,14,22,25,31,,,,,,,1.2,0.8,0.8*35

$GNGSA,A,2,01,04,14,22,25,31,,,,,,,1.2,0.8,0.8*2B

$GNGSA,A,2,69,70,71,73,79,80,,,,,,,1.2,0.8,0.8*22

$GNGNS,171611.0,4228.577630,N,08307.461312,W,AA,12,0.8,191.1,-34.0,,*51

$GPVTG,269.8,T,269.8,M,61.1,N,113.2,K,A*14

$GPRMC,171611.0,A,4228.577630,N,08307.461312,W,61.1,269.8,290315,0.0,E,A*2A

$GPGSA,A,2,01,04,14,22,25,31,,,,,,,1.2,0.8,0.8*35

$GNGSA,A,2,01,04,14,22,25,31,,,,,,,1.2,0.8,0.8*2B

$GNGSA,A,2,69,70,71,73,79,80,,,,,,,1.2,0.8,0.8*22

$GPGSV,3,1,11,01,17,277,17,03,20,314,20,04,14,248,29,08,,,12*42

$GPGSV,3,2,11,11,00,260,20,12,11,035,10,14,55,077,16,22,26,161,27*7F

$GPGSV,3,1,11,01,17,277,17,03,20,314,20,04,14,248,29,08,,,12*42

$GPGSV,3,2,11,11,00,260,20,12,11,035,10,14,55,077,16,22,26,161,27*7F

$GPGSV,3,3,11,25,39,063,23,31,76,262,21,32,61,282,17*4E

$GPGSV,3,3,11,25,39,063,23,31,76,262,21,32,61,282,17*4E

$GLGSV,3,1,09,70,65,326,21,73,17,219,27,80,69,230,19,79,44,032,18*6B

$GLGSV,3,2,09,69,52,139,28,71,13,322,12,68,02,140,8,88,,,*61

$GLGSV,3,3,09,87,02,350,*57

$GPGGA,171612.0,4228.575463,N,08307.484122,W,1,06,0.8,189.1,M,-34.0,M,,*66

$GNGNS,171612.0,4228.575463,N,08307.484122,W,AA,12,0.8,189.1,-34.0,,*57

$GPVTG,269.2,T,269.2,M,61.7,N,114.4,K,A*13

$GPRMC,171612.0,A,4228.575463,N,08307.484122,W,61.7,269.2,290315,0.0,E,A*29

$GPGSA,A,2,01,04,14,22,25,31,,,,,,,1.2,0.8,0.8*35

$GNGSA,A,2,01,04,14,22,25,31,,,,,,,1.2,0.8,0.8*2B

$GNGSA,A,2,69,70,71,73,79,80,,,,,,,1.2,0.8,0.8*22

$GLGSV,3,1,09,70,65,326,21,73,17,219,27,80,69,230,19,79,44,032,18*6B

$GLGSV,3,2,09,69,52,139,28,71,13,322,12,68,02,140,8,88,,,*61

$GLGSV,3,3,09,87,02,350,*57

$GPGGA,171612.0,4228.575463,N,08307.484122,W,1,06,0.8,189.1,M,-34.0,M,,*66

$GNGNS,171612.0,4228.575463,N,08307.484122,W,AA,12,0.8,189.1,-34.0,,*57

$GPVTG,269.2,T,269.2,M,61.7,N,114.4,K,A*13

$GPRMC,171612.0,A,4228.575463,N,08307.484122,W,61.7,269.2,290315,0.0,E,A*29

$GPGSA,A,2,01,04,14,22,25,31,,,,,,,1.2,0.8,0.8*35

$GNGSA,A,2,01,04,14,22,25,31,,,,,,,1.2,0.8,0.8*2B

$GNGSA,A,2,69,70,71,73,79,80,,,,,,,1.2,0.8,0.8*22

$GPGSV,3,1,11,01,17,277,18,03,20,314,20,04,14,248,29,08,,,12*4D

$GPGSV,3,2,11,11,00,260,16,12,11,035,10,14,55,077,16,22,26,161,26*7B

$GPGSV,3,3,11,25,39,063,22,31,76,262,21,32,61,282,17*4F

$GLGSV,3,1,09,70,65,326,21,73,17,219,27,80,69,230,19,79,44,032,18*6B

$GLGSV,3,2,09,69,52,139,28,71,13,322,12,68,02,140,8,88,,,*61

$GLGSV,3,3,09,87,02,350,*57

$GPGGA,171613.0,4228.571472,N,08307.510200,W,1,06,0.9,190.3,M,-34.0,M,,*67

$GNGNS,171613.0,4228.571472,N,08307.510200,W,AA,11,0.9,190.3,-34.0,,*55

$GPVTG,268.4,T,268.4,M,63.9,N,118.4,K,A*13

$GPRMC,171613.0,A,4228.571472,N,08307.510200,W,63.9,268.4,290315,0.0,E,A*28

$GPGSA,A,2,01,04,14,22,25,31,,,,,,,1.3,0.9,0.8*35

$GNGSA,A,2,01,04,14,22,25,31,,,,,,,1.3,0.9,0.8*2B

$GNGSA,A,2,69,70,73,79,80,,,,,,,,1.3,0.9,0.8*24

$GPGSV,3,1,11,01,17,277,18,03,20,314,20,04,14,248,29,08,,,12*4D

$GPGSV,3,2,11,11,00,260,16,12,11,035,10,14,55,077,16,22,26,161,26*7B

$GPGSV,3,3,11,25,39,063,22,31,76,262,21,32,61,282,17*4F

$GLGSV,3,1,09,70,65,326,21,73,17,219,27,80,69,230,19,79,44,032,18*6B

$GLGSV,3,2,09,69,52,139,28,71,13,322,12,68,02,140,8,88,,,*61

$GLGSV,3,3,09,87,02,350,*57

$GPGGA,171613.0,4228.571472,N,08307.510200,W,1,06,0.9,190.3,M,-34.0,M,,*67

$GNGNS,171613.0,4228.571472,N,08307.510200,W,AA,11,0.9,190.3,-34.0,,*55

$GPVTG,268.4,T,268.4,M,63.9,N,118.4,K,A*13

$GPRMC,171613.0,A,4228.571472,N,08307.510200,W,63.9,268.4,290315,0.0,E,A*28

$GPGSA,A,2,01,04,14,22,25,31,,,,,,,1.3,0.9,0.8*35

$GNGSA,A,2,01,04,14,22,25,31,,,,,,,1.3,0.9,0.8*2B

$GNGSA,A,2,69,70,73,79,80,,,,,,,,1.3,0.9,0.8*24

$GPGSV,3,1,11,01,17,277,17,03,20,314,14,04,14,248,28,08,,,16*40

$GPGSV,3,2,11,11,00,260,16,14,55,077,21,22,26,161,27,25,39,063,23*73

$GPGSV,3,1,11,01,17,277,17,03,20,314,14,04,14,248,28,08,,,16*40

$GPGSV,3,2,11,11,00,260,16,14,55,077,21,22,26,161,27,25,39,063,23*73

$GPGSV,3,3,11,31,76,262,20,32,61,282,17,12,11,035,*43

$GLGSV,3,1,09,70,65,326,19,73,17,219,27,80,69,230,19,79,44,032,19*61

$GLGSV,3,2,09,69,52,139,29,71,13,322,12,68,02,140,8,88,,,*60

$GLGSV,3,3,09,87,02,350,*57

$GPGGA,171614.0,4228.573273,N,08307.534000,W,1,07,0.8,190.6,M,-34.0,M,,*64

$GNGNS,171614.0,4228.573273,N,08307.534000,W,AA,12,0.8,190.6,-34.0,,*54

$GPVTG,268.1,T,268.1,M,63.1,N,116.9,K,A*18

$GPRMC,171614.0,A,4228.573273,N,08307.534000,W,63.1,268.1,290315,0.0,E,A*23

$GPGSA,A,2,01,03,04,14,22,25,31,,,,,,1.2,0.8,0.8*36

$GNGSA,A,2,01,03,04,14,22,25,31,,,,,,1.2,0.8,0.8*28

$GNGSA,A,2,69,70,73,79,80,,,,,,,,1.2,0.8,0.8*24

$GPGSV,3,3,11,31,76,262,20,32,61,282,17,12,11,035,*43

$GLGSV,3,1,09,70,65,326,19,73,17,219,27,80,69,230,19,79,44,032,19*61

$GLGSV,3,2,09,69,52,139,29,71,13,322,12,68,02,140,8,88,,,*60

$GLGSV,3,3,09,87,02,350,*57

$GPGGA,171614.0,4228.573273,N,08307.534000,W,1,07,0.8,190.6,M,-34.0,M,,*64

$GNGNS,171614.0,4228.573273,N,08307.534000,W,AA,12,0.8,190.6,-34.0,,*54

$GPVTG,268.1,T,268.1,M,63.1,N,116.9,K,A*18

$GPRMC,171614.0,A,4228.573273,N,08307.534000,W,63.1,268.1,290315,0.0,E,A*23

$GPGSA,A,2,01,03,04,14,22,25,31,,,,,,1.2,0.8,0.8*36

$GNGSA,A,2,01,03,04,14,22,25,31,,,,,,1.2,0.8,0.8*28

$GNGSA,A,2,69,70,73,79,80,,,,,,,,1.2,0.8,0.8*24

$GPGSV,3,1,11,01,17,277,21,03,20,314,20,04,14,248,29,08,,,16*43

$GPGSV,3,2,11,11,00,260,16,14,55,077,20,22,26,161,27,25,39,063,23*72

$GPGSV,3,1,11,01,17,277,21,03,20,314,20,04,14,248,29,08,,,16*43

$GPGSV,3,2,11,11,00,260,16,14,55,077,20,22,26,161,27,25,39,063,23*72

$GPGSV,3,3,11,31,76,262,22,32,61,282,17,12,11,035,*41

$GPGSV,3,3,11,31,76,262,22,32,61,282,17,12,11,035,*41

$GLGSV,3,1,09,70,65,326,20,73,17,219,27,80,69,230,19,79,44,032,19*6B

$GLGSV,3,2,09,69,52,139,29,71,13,322,12,68,02,140,8,88,,,*60

$GLGSV,3,3,09,87,02,350,*57

$GPGGA,171615.0,4228.573327,N,08307.555480,W,1,07,0.8,191.0,M,-34.0,M,,*69

$GNGNS,171615.0,4228.573327,N,08307.555480,W,AA,12,0.8,191.0,-34.0,,*59

$GPVTG,267.9,T,267.9,M,61.7,N,114.3,K,A*14

$GPRMC,171615.0,A,4228.573327,N,08307.555480,W,61.7,267.9,290315,0.0,E,A*2A

$GLGSV,3,1,09,70,65,326,20,73,17,219,27,80,69,230,19,79,44,032,19*6B

$GLGSV,3,2,09,69,52,139,29,71,13,322,12,68,02,140,8,88,,,*60

$GLGSV,3,3,09,87,02,350,*57

$GPGGA,171615.0,4228.573327,N,08307.555480,W,1,07,0.8,191.0,M,-34.0,M,,*69

$GNGNS,171615.0,4228.573327,N,08307.555480,W,AA,12,0.8,191.0,-34.0,,*59

$GPVTG,267.9,T,267.9,M,61.7,N,114.3,K,A*14

$GPRMC,171615.0,A,4228.573327,N,08307.555480,W,61.7,267.9,290315,0.0,E,A*2A

$GPGSA,A,2,01,03,04,14,22,25,31,,,,,,1.2,0.8,0.8*36

$GNGSA,A,2,01,03,04,14,22,25,31,,,,,,1.2,0.8,0.8*28

$GNGSA,A,2,69,70,73,79,80,,,,,,,,1.2,0.8,0.8*24

$GPGSA,A,2,01,03,04,14,22,25,31,,,,,,1.2,0.8,0.8*36

$GNGSA,A,2,01,03,04,14,22,25,31,,,,,,1.2,0.8,0.8*28

$GNGSA,A,2,69,70,73,79,80,,,,,,,,1.2,0.8,0.8*24

$GPGSV,3,1,11,01,17,277,19,03,20,314,23,04,14,248,29,08,,,15*48

$GPGSV,3,2,11,11,00,260,16,14,55,077,19,22,26,161,27,25,39,063,22*79

$GPGSV,3,1,11,01,17,277,19,03,20,314,23,04,14,248,29,08,,,15*48

$GPGSV,3,2,11,11,00,260,16,14,55,077,19,22,26,161,27,25,39,063,22*79

$GPGSV,3,3,11,31,76,262,21,32,61,282,17,12,11,035,*42

$GPGSV,3,3,11,31,76,262,21,32,61,282,17,12,11,035,*42

$GLGSV,3,1,09,70,65,326,21,73,17,219,28,80,69,230,20,79,44,032,21*64

$GLGSV,3,1,09,70,65,326,21,73,17,219,28,80,69,230,20,79,44,032,21*64

$GLGSV,3,2,09,69,52,139,30,71,13,322,12,68,02,140,8,88,,,*68

$GLGSV,3,2,09,69,52,139,30,71,13,322,12,68,02,140,8,88,,,*68

$GLGSV,3,3,09,87,02,350,*57

$GLGSV,3,3,09,87,02,350,*57

$GPGGA,171616.0,4228.572238,N,08307.579056,W,1,07,0.8,191.3,M,-34.0,M,,*66

$GPGGA,171616.0,4228.572238,N,08307.579056,W,1,07,0.8,191.3,M,-34.0,M,,*66

$GNGNS,171616.0,4228.572238,N,08307.579056,W,AA,12,0.8,191.3,-34.0,,*56

$GNGNS,171616.0,4228.572238,N,08307.579056,W,AA,12,0.8,191.3,-34.0,,*56

$GPVTG,267.5,T,267.5,M,62.0,N,114.8,K,A*1B

$GPVTG,267.5,T,267.5,M,62.0,N,114.8,K,A*1B

$GPRMC,171616.0,A,4228.572238,N,08307.579056,W,62.0,267.5,290315,0.0,E,A*2E

$GPGSA,A,2,01,03,04,14,22,25,31,,,,,,1.2,0.8,0.8*36

$GNGSA,A,2,01,03,04,14,22,25,31,,,,,,1.2,0.8,0.8*28

$GNGSA,A,2,69,70,73,79,80,,,,,,,,1.2,0.8,0.8*24

$GPRMC,171616.0,A,4228.572238,N,08307.579056,W,62.0,267.5,290315,0.0,E,A*2E

$GPGSA,A,2,01,03,04,14,22,25,31,,,,,,1.2,0.8,0.8*36

$GNGSA,A,2,01,03,04,14,22,25,31,,,,,,1.2,0.8,0.8*28

$GNGSA,A,2,69,70,73,79,80,,,,,,,,1.2,0.8,0.8*24

$GPGSV,3,1,11,01,17,277,21,03,20,314,21,04,14,248,27,08,,,18*42

$GPGSV,3,2,11,11,00,260,16,14,55,077,18,22,26,161,26,25,39,063,21*7A

$GPGSV,3,3,11,31,76,262,22,32,61,282,12,12,11,035,*44

$GLGSV,3,1,09,70,65,326,21,73,17,219,28,80,69,230,21,79,44,032,22*66

$GLGSV,3,2,09,69,52,139,29,71,13,322,14,68,02,140,8,88,,,*66

$GLGSV,3,3,09,87,02,350,*57

$GPGGA,171617.0,4228.572180,N,08307.602262,W,1,08,0.8,190.3,M,-34.0,M,,*63

$GNGNS,171617.0,4228.572180,N,08307.602262,W,AA,14,0.8,190.3,-34.0,,*5A

$GPVTG,267.2,T,267.2,M,62.4,N,115.5,K,A*13

$GPRMC,171617.0,A,4228.572180,N,08307.602262,W,62.4,267.2,290315,0.0,E,A*26

$GPGSA,A,2,01,03,04,14,22,25,31,32,,,,,1.1,0.8,0.8*34

$GNGSA,A,2,01,03,04,14,22,25,31,32,,,,,1.1,0.8,0.8*2A

$GNGSA,A,2,69,70,71,73,79,80,,,,,,,1.1,0.8,0.8*21

$GPGSV,3,1,11,01,17,277,21,03,20,314,21,04,14,248,27,08,,,18*42

$GPGSV,3,2,11,11,00,260,16,14,55,077,18,22,26,161,26,25,39,063,21*7A

$GPGSV,3,3,11,31,76,262,22,32,61,282,12,12,11,035,*44

$GLGSV,3,1,09,70,65,326,21,73,17,219,28,80,69,230,21,79,44,032,22*66

$GLGSV,3,2,09,69,52,139,29,71,13,322,14,68,02,140,8,88,,,*66

$GLGSV,3,3,09,87,02,350,*57

$GPGGA,171617.0,4228.572180,N,08307.602262,W,1,08,0.8,190.3,M,-34.0,M,,*63

$GNGNS,171617.0,4228.572180,N,08307.602262,W,AA,14,0.8,190.3,-34.0,,*5A

$GPVTG,267.2,T,267.2,M,62.4,N,115.5,K,A*13

$GPRMC,171617.0,A,4228.572180,N,08307.602262,W,62.4,267.2,290315,0.0,E,A*26

$GPGSA,A,2,01,03,04,14,22,25,31,32,,,,,1.1,0.8,0.8*34

$GNGSA,A,2,01,03,04,14,22,25,31,32,,,,,1.1,0.8,0.8*2A

$GNGSA,A,2,69,70,71,73,79,80,,,,,,,1.1,0.8,0.8*21

$GPGSV,3,1,11,01,17,277,20,03,20,314,21,04,14,248,26,08,,,18*42

$GPGSV,3,2,11,11,00,260,19,14,55,077,19,22,26,161,26,25,39,063,22*77

$GPGSV,3,3,11,31,76,262,21,32,61,282,12,12,11,035,*47

$GPGSV,3,1,11,01,17,277,20,03,20,314,21,04,14,248,26,08,,,18*42

$GPGSV,3,2,11,11,00,260,19,14,55,077,19,22,26,161,26,25,39,063,22*77

$GPGSV,3,3,11,31,76,262,21,32,61,282,12,12,11,035,*47

$GLGSV,2,1,08,70,65,326,21,73,17,219,28,80,69,230,21,79,44,032,17*60

$GLGSV,2,2,08,69,52,139,29,71,13,322,24,88,,,,87,02,350,*5F

$GPGGA,171618.0,4228.570057,N,08307.626496,W,1,08,0.8,191.1,M,-34.0,M,,*6D

$GNGNS,171618.0,4228.570057,N,08307.626496,W,AA,14,0.8,191.1,-34.0,,*54

$GPVTG,266.9,T,266.9,M,62.5,N,115.7,K,A*10

$GPRMC,171618.0,A,4228.570057,N,08307.626496,W,62.5,266.9,290315,0.0,E,A*20

$GPGSA,A,2,01,03,04,14,22,25,31,32,,,,,1.1,0.8,0.8*34

$GNGSA,A,2,01,03,04,14,22,25,31,32,,,,,1.1,0.8,0.8*2A

$GNGSA,A,2,69,70,71,73,79,80,,,,,,,1.1,0.8,0.8*21

$GLGSV,2,1,08,70,65,326,21,73,17,219,28,80,69,230,21,79,44,032,17*60

$GLGSV,2,2,08,69,52,139,29,71,13,322,24,88,,,,87,02,350,*5F

$GPGGA,171618.0,4228.570057,N,08307.626496,W,1,08,0.8,191.1,M,-34.0,M,,*6D

$GNGNS,171618.0,4228.570057,N,08307.626496,W,AA,14,0.8,191.1,-34.0,,*54

$GPVTG,266.9,T,266.9,M,62.5,N,115.7,K,A*10

$GPRMC,171618.0,A,4228.570057,N,08307.626496,W,62.5,266.9,290315,0.0,E,A*20

$GPGSA,A,2,01,03,04,14,22,25,31,32,,,,,1.1,0.8,0.8*34

$GNGSA,A,2,01,03,04,14,22,25,31,32,,,,,1.1,0.8,0.8*2A

$GNGSA,A,2,69,70,71,73,79,80,,,,,,,1.1,0.8,0.8*21

$GPGSV,3,1,11,01,17,277,18,03,20,314,21,04,14,248,25,08,,,18*4A

$GPGSV,3,1,11,01,17,277,18,03,20,314,21,04,14,248,25,08,,,18*4A

$GPGSV,3,2,11,11,00,260,21,14,55,077,21,22,26,161,27,25,39,063,19*7E

$GPGSV,3,3,11,31,76,262,20,32,61,282,15,12,11,035,*41

$GLGSV,3,1,09,70,65,326,22,73,17,219,29,80,69,230,21,79,44,032,19*6C

$GLGSV,3,2,09,69,52,139,29,71,13,322,17,88,,,,87,02,350,*5F

$GLGSV,3,3,09,68,02,140,*55

$GPGGA,171619.0,4228.569308,N,08307.650484,W,1,08,0.8,193.4,M,-34.0,M,,*68

$GNGNS,171619.0,4228.569308,N,08307.650484,W,AA,14,0.8,193.4,-34.0,,*51

$GPVTG,267.0,T,267.0,M,62.8,N,116.3,K,A*1A

$GPRMC,171619.0,A,4228.569308,N,08307.650484,W,62.8,267.0,290315,0.0,E,A*27

$GPGSA,A,2,01,03,04,14,22,25,31,32,,,,,1.1,0.8,0.8*34

$GNGSA,A,2,01,03,04,14,22,25,31,32,,,,,1.1,0.8,0.8*2A

$GNGSA,A,2,69,70,71,73,79,80,,,,,,,1.1,0.8,0.8*21

$GPGSV,3,2,11,11,00,260,21,14,55,077,21,22,26,161,27,25,39,063,19*7E

$GPGSV,3,3,11,31,76,262,20,32,61,282,15,12,11,035,*41

$GLGSV,3,1,09,70,65,326,22,73,17,219,29,80,69,230,21,79,44,032,19*6C

$GLGSV,3,2,09,69,52,139,29,71,13,322,17,88,,,,87,02,350,*5F

$GLGSV,3,3,09,68,02,140,*55

$GPGGA,171619.0,4228.569308,N,08307.650484,W,1,08,0.8,193.4,M,-34.0,M,,*68

$GNGNS,171619.0,4228.569308,N,08307.650484,W,AA,14,0.8,193.4,-34.0,,*51

$GPVTG,267.0,T,267.0,M,62.8,N,116.3,K,A*1A

$GPRMC,171619.0,A,4228.569308,N,08307.650484,W,62.8,267.0,290315,0.0,E,A*27

$GPGSA,A,2,01,03,04,14,22,25,31,32,,,,,1.1,0.8,0.8*34

$GNGSA,A,2,01,03,04,14,22,25,31,32,,,,,1.1,0.8,0.8*2A

$GNGSA,A,2,69,70,71,73,79,80,,,,,,,1.1,0.8,0.8*21

$GPGSV,3,1,11,01,17,277,20,03,20,314,21,04,14,248,27,08,,,20*48

$GPGSV,3,1,11,01,17,277,20,03,20,314,21,04,14,248,27,08,,,20*48

$GPGSV,3,2,11,11,00,260,23,14,55,077,21,22,26,161,27,25,39,063,22*74

$GPGSV,3,3,11,31,76,262,21,32,61,282,16,12,11,035,*43

$GLGSV,3,1,09,70,65,326,23,73,17,219,29,80,69,230,21,79,44,032,20*67

$GLGSV,3,2,09,69,52,139,29,71,13,322,27,88,,,,87,02,350,*5C

$GLGSV,3,3,09,68,02,140,*55

$GPGGA,171620.0,4228.568324,N,08307.674558,W,1,08,0.8,193.8,M,-34.0,M,,*67

$GNGNS,171620.0,4228.568324,N,08307.674558,W,AA,14,0.8,193.8,-34.0,,*5E

$GPVTG,267.2,T,267.2,M,63.2,N,117.0,K,A*13

$GPRMC,171620.0,A,4228.568324,N,08307.674558,W,63.2,267.2,290315,0.0,E,A*2D

$GPGSA,A,2,01,03,04,14,22,25,31,32,,,,,1.1,0.8,0.8*34

$GNGSA,A,2,01,03,04,14,22,25,31,32,,,,,1.1,0.8,0.8*2A

$GPGSV,3,2,11,11,00,260,23,14,55,077,21,22,26,161,27,25,39,063,22*74

$GPGSV,3,3,11,31,76,262,21,32,61,282,16,12,11,035,*43

$GLGSV,3,1,09,70,65,326,23,73,17,219,29,80,69,230,21,79,44,032,20*67

$GLGSV,3,2,09,69,52,139,29,71,13,322,27,88,,,,87,02,350,*5C

$GLGSV,3,3,09,68,02,140,*55

$GPGGA,171620.0,4228.568324,N,08307.674558,W,1,08,0.8,193.8,M,-34.0,M,,*67

$GNGNS,171620.0,4228.568324,N,08307.674558,W,AA,14,0.8,193.8,-34.0,,*5E

$GPVTG,267.2,T,267.2,M,63.2,N,117.0,K,A*13

$GPRMC,171620.0,A,4228.568324,N,08307.674558,W,63.2,267.2,290315,0.0,E,A*2D

$GPGSA,A,2,01,03,04,14,22,25,31,32,,,,,1.1,0.8,0.8*34

$GNGSA,A,2,01,03,04,14,22,25,31,32,,,,,1.1,0.8,0.8*2A

$GNGSA,A,2,69,70,71,73,79,80,,,,,,,1.1,0.8,0.8*21

$GNGSA,A,2,69,70,71,73,79,80,,,,,,,1.1,0.8,0.8*21

$GPGSV,3,1,11,01,17,277,19,03,20,314,21,04,14,248,26,08,,,18*48

$GPGSV,3,2,11,11,00,260,20,14,55,077,21,22,26,161,28,25,39,063,22*78

$GPGSV,3,3,11,31,76,262,20,32,61,282,16,12,11,035,*42

$GLGSV,3,1,09,70,65,326,22,73,17,219,28,80,69,230,19,79,44,032,18*67

$GLGSV,3,2,09,69,52,139,29,71,13,322,25,88,,,,87,02,350,*5E

$GLGSV,3,3,09,68,02,140,*55

$GPGGA,171621.0,4228.567269,N,08307.699221,W,1,08,0.8,195.0,M,-34.0,M,,*65

$GNGNS,171621.0,4228.567269,N,08307.699221,W,AA,14,0.8,195.0,-34.0,,*5C

$GPVTG,267.4,T,267.4,M,63.6,N,117.9,K,A*1E

$GPRMC,171621.0,A,4228.567269,N,08307.699221,W,63.6,267.4,290315,0.0,E,A*23

$GPGSA,A,2,01,03,04,14,22,25,31,32,,,,,1.1,0.8,0.8*34

$GNGSA,A,2,01,03,04,14,22,25,31,32,,,,,1.1,0.8,0.8*2A

$GNGSA,A,2,69,70,71,73,79,80,,,,,,,1.1,0.8,0.8*21

$GPGSV,3,1,11,01,17,277,19,03,20,314,21,04,14,248,26,08,,,18*48

$GPGSV,3,2,11,11,00,260,20,14,55,077,21,22,26,161,28,25,39,063,22*78

$GPGSV,3,3,11,31,76,262,20,32,61,282,16,12,11,035,*42

$GLGSV,3,1,09,70,65,326,22,73,17,219,28,80,69,230,19,79,44,032,18*67

$GLGSV,3,2,09,69,52,139,29,71,13,322,25,88,,,,87,02,350,*5E

$GLGSV,3,3,09,68,02,140,*55

$GPGGA,171621.0,4228.567269,N,08307.699221,W,1,08,0.8,195.0,M,-34.0,M,,*65

$GNGNS,171621.0,4228.567269,N,08307.699221,W,AA,14,0.8,195.0,-34.0,,*5C

$GPVTG,267.4,T,267.4,M,63.6,N,117.9,K,A*1E

$GPRMC,171621.0,A,4228.567269,N,08307.699221,W,63.6,267.4,290315,0.0,E,A*23

$GPGSA,A,2,01,03,04,14,22,25,31,32,,,,,1.1,0.8,0.8*34

$GNGSA,A,2,01,03,04,14,22,25,31,32,,,,,1.1,0.8,0.8*2A

$GNGSA,A,2,69,70,71,73,79,80,,,,,,,1.1,0.8,0.8*21

$GPGSV,3,1,11,01,17,277,18,03,20,314,18,04,14,248,27,08,,,18*42

$GPGSV,3,1,11,01,17,277,18,03,20,314,18,04,14,248,27,08,,,18*42

$GPGSV,3,2,11,11,00,260,22,14,55,077,21,22,26,161,27,25,39,063,23*74

$GPGSV,3,3,11,31,76,262,21,32,61,282,16,12,11,035,*43

$GLGSV,3,1,09,70,65,326,20,73,17,219,27,80,69,230,19,79,44,032,18*6A

$GLGSV,3,2,09,69,52,139,28,71,13,322,18,88,,,,87,02,350,*51

$GLGSV,3,3,09,68,02,140,*55

$GPGGA,171622.0,4228.567241,N,08307.722335,W,1,08,0.8,194.3,M,-34.0,M,,*6B

$GNGNS,171622.0,4228.567241,N,08307.722335,W,AA,14,0.8,194.3,-34.0,,*52

$GPVTG,267.8,T,267.8,M,64.0,N,118.5,K,A*1C

$GPRMC,171622.0,A,4228.567241,N,08307.722335,W,64.0,267.8,290315,0.0,E,A*22

$GPGSA,A,2,01,03,04,14,22,25,31,32,,,,,1.1,0.8,0.8*34

$GNGSA,A,2,01,03,04,14,22,25,31,32,,,,,1.1,0.8,0.8*2A

$GNGSA,A,2,69,70,71,73,79,80,,,,,,,1.1,0.8,0.8*21

$GPGSV,3,2,11,11,00,260,22,14,55,077,21,22,26,161,27,25,39,063,23*74

$GPGSV,3,3,11,31,76,262,21,32,61,282,16,12,11,035,*43

$GLGSV,3,1,09,70,65,326,20,73,17,219,27,80,69,230,19,79,44,032,18*6A

$GLGSV,3,2,09,69,52,139,28,71,13,322,18,88,,,,87,02,350,*51

$GLGSV,3,3,09,68,02,140,*55

$GPGGA,171622.0,4228.567241,N,08307.722335,W,1,08,0.8,194.3,M,-34.0,M,,*6B

$GNGNS,171622.0,4228.567241,N,08307.722335,W,AA,14,0.8,194.3,-34.0,,*52

$GPVTG,267.8,T,267.8,M,64.0,N,118.5,K,A*1C

$GPRMC,171622.0,A,4228.567241,N,08307.722335,W,64.0,267.8,290315,0.0,E,A*22

$GPGSA,A,2,01,03,04,14,22,25,31,32,,,,,1.1,0.8,0.8*34

$GNGSA,A,2,01,03,04,14,22,25,31,32,,,,,1.1,0.8,0.8*2A

$GNGSA,A,2,69,70,71,73,79,80,,,,,,,1.1,0.8,0.8*21

$GPGSV,3,1,11,01,17,277,19,03,20,314,22,04,14,248,27,08,,,18*4A

$GPGSV,3,1,11,01,17,277,19,03,20,314,22,04,14,248,27,08,,,18*4A

$GPGSV,3,2,11,11,00,260,22,14,55,077,21,22,26,161,25,25,39,063,22*77

$GPGSV,3,2,11,11,00,260,22,14,55,077,21,22,26,161,25,25,39,063,22*77

$GPGSV,3,3,11,31,76,262,21,32,61,282,16,12,11,035,*43

$GLGSV,3,1,09,70,65,326,20,73,17,219,27,80,69,230,19,79,44,032,20*61

$GLGSV,3,2,09,69,52,139,28,71,13,322,22,88,,,,87,02,350,*58

$GLGSV,3,3,09,68,02,140,*55

$GPGGA,171623.0,4228.568092,N,08307.746181,W,1,08,0.8,193.7,M,-34.0,M,,*65

$GNGNS,171623.0,4228.568092,N,08307.746181,W,AA,14,0.8,193.7,-34.0,,*5C

$GPGSV,3,3,11,31,76,262,21,32,61,282,16,12,11,035,*43

$GLGSV,3,1,09,70,65,326,20,73,17,219,27,80,69,230,19,79,44,032,20*61

$GLGSV,3,2,09,69,52,139,28,71,13,322,22,88,,,,87,02,350,*58

$GLGSV,3,3,09,68,02,140,*55

$GPGGA,171623.0,4228.568092,N,08307.746181,W,1,08,0.8,193.7,M,-34.0,M,,*65

$GNGNS,171623.0,4228.568092,N,08307.746181,W,AA,14,0.8,193.7,-34.0,,*5C

$GPVTG,268.1,T,268.1,M,64.1,N,118.6,K,A*1E

$GPVTG,268.1,T,268.1,M,64.1,N,118.6,K,A*1E

$GPRMC,171623.0,A,4228.568092,N,08307.746181,W,64.1,268.1,290315,0.0,E,A*28

$GPRMC,171623.0,A,4228.568092,N,08307.746181,W,64.1,268.1,290315,0.0,E,A*28

$GPGSA,A,2,01,03,04,14,22,25,31,32,,,,,1.1,0.8,0.8*34

$GNGSA,A,2,01,03,04,14,22,25,31,32,,,,,1.1,0.8,0.8*2A

$GNGSA,A,2,69,70,71,73,79,80,,,,,,,1.1,0.8,0.8*21

$GPGSA,A,2,01,03,04,14,22,25,31,32,,,,,1.1,0.8,0.8*34

$GNGSA,A,2,01,03,04,14,22,25,31,32,,,,,1.1,0.8,0.8*2A

$GNGSA,A,2,69,70,71,73,79,80,,,,,,,1.1,0.8,0.8*21

$GPGSV,3,1,11,01,17,277,19,03,20,314,23,04,14,248,29,08,,,16*4B

$GPGSV,3,1,11,01,17,277,19,03,20,314,23,04,14,248,29,08,,,16*4B

$GPGSV,3,2,11,11,00,260,24,14,55,077,22,22,26,161,26,25,39,063,24*77

$GPGSV,3,2,11,11,00,260,24,14,55,077,22,22,26,161,26,25,39,063,24*77

$GPGSV,3,3,11,31,76,262,22,32,61,282,16,12,11,035,*40

$GLGSV,3,1,09,70,65,326,21,73,17,219,28,80,69,230,20,79,44,032,19*6F

$GPGSV,3,3,11,31,76,262,22,32,61,282,16,12,11,035,*40

$GLGSV,3,1,09,70,65,326,21,73,17,219,28,80,69,230,20,79,44,032,19*6F

$GLGSV,3,2,09,69,52,139,29,71,13,322,23,88,,,,87,02,350,*58

$GLGSV,3,3,09,68,02,140,*55

$GPGGA,171624.0,4228.568486,N,08307.770910,W,1,08,0.8,191.2,M,-34.0,M,,*61

$GNGNS,171624.0,4228.568486,N,08307.770910,W,AA,14,0.8,191.2,-34.0,,*58

$GPVTG,268.2,T,268.2,M,65.1,N,120.5,K,A*17

$GPRMC,171624.0,A,4228.568486,N,08307.770910,W,65.1,268.2,290315,0.0,E,A*29

$GPGSA,A,2,01,03,04,14,22,25,31,32,,,,,1.1,0.8,0.8*34

$GNGSA,A,2,01,03,04,14,22,25,31,32,,,,,1.1,0.8,0.8*2A

$GNGSA,A,2,69,70,71,73,79,80,,,,,,,1.1,0.8,0.8*21

$GLGSV,3,2,09,69,52,139,29,71,13,322,23,88,,,,87,02,350,*58

